Date,Title,Link,Post ID,Posted Date,Latitude,Longitude
01.02.2025,تفجير طائرة مسيرة انتحارية تابعة للجيش التركي عند سد تشرين دون ورود أنباء عن إصابات,https://syria.liveuamap.com/ar/2025/1-february-14-a-turkish-army-suicide-drone-detonated-at-tishreen,22733926,1 الشهر منذ,36.38313,38.17234
01.02.2025,جنوب سوريا: أفادت الأنباء أن رجلاً أطلق النار على جنود إسرائيليين في منطقة ترنجة (محافظة القنيطرة) الليلة الماضية، ثم داهم جيش  القرية واعتقل رجلين، وهذه هي الحادثة الأولى من نوعها في المنطقة,https://syria.liveuamap.com/ar/2025/1-february-10-south-syria-last-night-a-man-reportedly-opened,22733858,1 الشهر منذ,33.23294,35.84358
01.02.2025,الرئيس المصري يهنئ أحمد الشرع بتوليه منصب رئاسة سوريا خلال المرحلة الانتقالية,https://syria.liveuamap.com/ar/2025/1-february-01-egyptian-president-congratulates-ahmed-alsharaa,22733769,1 الشهر منذ,30.08867,31.31936
01.02.2025,"إذاعة الجيش الإسرائيلي: ""إرهابيون مسلحون"" أطلقوا النار على قوات الجيش الإسرائيلي في المنطقة العازلة في سوريا",https://syria.liveuamap.com/ar/2025/31-january-21-israel-army-radio-armed-militants-opened-fire,22733768,1 الشهر منذ,33.37985,35.83603
01.02.2025,"المرصد السوري: غارات جوية تركية استهدفت بلدة صرين ومحطيها ومحيط سد تشرين وقرقوزاق ومدرسة بقرية خروص في ريف عين العرب ""كوباني""",https://syria.liveuamap.com/ar/2025/31-january-21-turkish-airstrikes-targeted-the-town-of-sarrin,22733748,1 الشهر منذ,36.36592,38.22556
01.02.2025,الطيران الحربي التركي يستهدف بغارات جوية عنيفة مواقع مليشيا قسد في محيط سد_تشرين شرقي حلب.,https://syria.liveuamap.com/ar/2025/31-january-20-turkish-warplanes-target-sdf-positions-in-the,22733729,1 الشهر منذ,36.38231,38.19466
01.02.2025,مصدر في الخارجية التركية لرويترز: وزير الخارجية التركي ونظيره الروسي يبحثان هاتفيا الوضع في سوريا,https://syria.liveuamap.com/ar/2025/31-january-15-the-turkish-foreign-minister-and-his-russian,22733670,1 الشهر منذ,39.91102,32.81633
01.02.2025,القبض على عاطف نجيب ، ابن خالة رئيس النظام البائد بشار الأسد، ورئيس فرع الأمن السياسي السابق في درعا.n نجيب متهم بارتكاب جرائم في بداية الثورة السورية، من بينها اقتلاع أظـ.افـ.ر الأطـ.فال الذين طالبوا بالحرية في درعا من بينهم حمزة_الخطيب,https://syria.liveuamap.com/ar/2025/31-january-14-arrest-of-atef-najib-cousin-of-the-former-regime,22733668,1 الشهر منذ,32.61941,36.10537
01.02.2025,الاتحاد الأوروبي للعربية: نعمل على تعزيز الحضور الأوروبي في سوريا,https://syria.liveuamap.com/ar/2025/31-january-11-eu-we-are-working-to-strengthen-the-european,22733631,1 الشهر منذ,50.83864,4.37557
01.02.2025,استهدفت غارة إسرائيلية، حوالي الساعة الثالثة فجر اليوم الجمعة، الطريق الرئيسي الواصل بين سوريا ولبنان، والذي يربط بلدة الطفيل اللبنانية ببلدة عسال الورد السورية في القلمون الغربي.,https://israelpalestine.liveuamap.com/ar/2025/31-january-10-an-israeli-airstrike-targeted-the-main-road,22733624,1 الشهر منذ,33.84874,36.38054
01.02.2025,"أعلنت القيادة المركزية الأمريكية (CENTCOM) في بيانٍ رسمي عن تنفيذ غارة جوية دقيقة يوم 30 كانون الثاني في شمال غرب سوريا، استهدفت القيادي في جماعة حراس الدين المرتبطة بتنظيم القاعدة، محمد صلاح الزبير  ووفقًا للبيان، أكدت القوات الأمريكية نجاح العملية في تحييد ""الزبير"" الذي وصفته…",https://syria.liveuamap.com/ar/2025/31-january-09-the-us-central-command-centcom-announced-in,22733613,1 الشهر منذ,38.86879,-77.05592
01.02.2025,الجيش الأميركي يقول إنه قتل قياديا بارزا في جماعة حراس الدين التابعة لتنظيم القاعدة في غارة جوية بشمال غرب سوريا,https://syria.liveuamap.com/ar/2025/31-january-08-the-us-military-says-it-has-killed-a-senior,22733591,1 الشهر منذ,38.86818,-77.05553
01.02.2025,وحدات مدفعية تابعة للقوات المسلحة التركية تقصف أهدافاً لقوات سوريا الديمقراطية في منطقة أبو راسين شرقي رأس العين,https://syria.liveuamap.com/ar/2025/31-january-07-turkish-armed-forces-artillery-units-hit-sdf,22733563,1 الشهر منذ,36.84581,40.32944
01.02.2025,شنت طائرة تابعة للتحالف الدولي غارة جوية على هدف قرب بلدة باتبو جنوب سرمدا,https://syria.liveuamap.com/ar/2025/30-january-20-an-international-coalition-aircraft-launched,22733500,1 الشهر منذ,36.13273,36.73759
01.02.2025,الشرع: سنركز في الفترة المقبلة على بناء مؤسسات قوية للدولة لا فساد فيها ولا رشاوى وتحقيق السلم الأهلي وملاحقة ين ممن ولغوا في الدم السوري,https://syria.liveuamap.com/ar/2025/30-january-20-alsharaa-we-will-focus-in-the-coming-period,22733487,1 الشهر منذ,33.51433,36.25059
01.02.2025,أحمد الشرع في أول خطاب قصير له منذ توليه منصبه أمس: يقول إنه ليس حاكماً بل خادماً؛ سيشكل حكومة شاملة من مختلف مكونات سورية؛ سيعلن عن لجنة تحضيرية لمؤتمر الحوار الوطني,https://syria.liveuamap.com/ar/2025/30-january-19-ahmed-sharaa-in-short-first-speech-since-taking,22733486,1 الشهر منذ,33.51648,36.25145
01.02.2025,الشرع:  سوريا تحررت من نظام مجرم    سوريا تحررت بفضل تضحيات جميع السوريين بالداخل والخارج    نفتح فصلا جديدا في تاريخ سوريا  قناة_العربية,https://syria.liveuamap.com/ar/2025/30-january-19-alsharaa-in-a-speech-syria-was-liberated-from,22733485,1 الشهر منذ,33.51705,36.25145
01.02.2025,اشتباكات بين الجيش الوطني وقوات سوريا الديمقراطية على خط دير حافر شرقي منبج,https://syria.liveuamap.com/ar/2025/30-january-19-clashes-are-taking-place-between-sna-and-sdf,22733488,1 الشهر منذ,36.19431,37.7504
01.02.2025,"جلسة استماع للجنة الاستخبارات بمجلس الشيوخ الأمريكي لتأكيد تعيين تولسي جابارد في منصب مدير الاستخبارات الوطنية الأمريكية. قالت تولسي جابارد: ""أنا أكره تنظيم القاعدة. أكره أن يكون لدينا قادة يتقربون من المتطرفين الإسلاميين، ويقللون من شأنهم إلى ما يسمى بالمتمردين"". تقول إن سوريا  تحت سيطرة فرع من تنظيم القاعدة وزعيم ""رقص في الشوارع"" في الحادي عشر من سبتمبر.",https://syria.liveuamap.com/ar/2025/30-january-16-senate-intelligence-committee-confirmation,22733443,1 الشهر منذ,38.88968,-77.00901
01.02.2025,الخارجية القطرية: رئيس الوزراء وزير الخارجية بحث مع وزير الخارجية الإيراني في الدوحة الأوضاع في غزة وسوريا,https://syria.liveuamap.com/ar/2025/30-january-14-qatari-foreign-ministry-prime-minister-and,22733436,1 الشهر منذ,25.34354,51.51923
01.02.2025,قصفت القوات المسلحة التركية بنيران المدفعية أهدافاً لقوات سوريا الديمقراطية في قرية أم براميل على محور عين عيسى.,https://syria.liveuamap.com/ar/2025/30-january-14-the-turkish-armed-forces-hit-sdf-targets-in,22733431,1 الشهر منذ,36.40248,38.85229
01.02.2025,سمو الأمير المفدى يصل إلى العاصمة دمشق في زيارة رسمية إلى الجمهورية العربية السورية الشقيقة، وفي مقدمة مستقبليه أخوه فخامة السيد أحمد الشرع رئيس الجمهورية العربية السورية. قطر سوريا,https://syria.liveuamap.com/ar/2025/30-january-09-qatari-emir-arrives-in-the-capital-damascus,22733391,1 الشهر منذ,33.40865,36.51049
01.02.2025,رئيس دولة قطر يصل إلى العاصمة السورية دمشق,https://syria.liveuamap.com/ar/2025/30-january-09-the-president-of-the-state-of-qatar-arrives,22733389,1 الشهر منذ,33.51394,36.29584
01.02.2025,وفد عسكري رفيع المستوى من وزارة الدفاع التركية يلتقي مسؤولين في الجيش السوري الجديد,https://syria.liveuamap.com/ar/2025/30-january-06-a-highlevel-military-delegation-from-the-turkish,22733321,1 الشهر منذ,33.51234,36.28098
01.02.2025,المحتجون على سد تشرين: حماية السد مسؤولية جميع المكونات السوريةعرض المزيد (  وكالة أنباء هاوار ANHA    لحظة بلحظة عبر الواتس اب,https://syria.liveuamap.com/ar/2025/30-january-05-protesters-at-tishreen-dam-protecting-the-dam,22733293,1 الشهر منذ,36.37968,38.18882
01.02.2025,صور من فعاليات مؤتمر إعلان انتصار الثورة السورية وتنصيب الشرع رئيساً للبلاد,https://syria.liveuamap.com/ar/2025/29-january-18-pictures-from-the-activities-of-the-conference,22733198,1 الشهر منذ,33.51824,36.25265
01.02.2025,"العقيد حسن عبد الغني : نعلن تولية السيد القائد ""أحمد الشرع"" رئاسة البلاد في المرحلة الانتقالية، ويقوم بمهام رئاسة الجمهورية العربية السورية، ويمثلها في المحافل الدولية  مؤتمر_النصر",https://syria.liveuamap.com/ar/2025/29-january-18-colonel-hassan-abdul-ghani-we-announce-the,22733196,1 الشهر منذ,33.51704,36.25117
01.02.2025,العقيد حسن عبد الغني: نعلن حل حزب البعث العربي الاشتراكي، وأحزاب الجبهة الوطنية التقدمية، وما يتبع لها من منظمات ومؤسسات ولجان، ويحظر إعادة تشكيلها تحت أي اسم آخر، على أن تعود جميع أصولها إلى الدولة السورية   مؤتمر_النصر,https://syria.liveuamap.com/ar/2025/29-january-18-colonel-hassan-abdul-ghani-we-announce-the,22733195,1 الشهر منذ,33.51704,36.25117
01.02.2025,تنصيب أحمد الشرع رئيساً للجمهورية العربية السورية  للمرحلة الانتقالية وحل الأجهزة الأمنية وحزب البعث والجيش و مجلس الشعب,https://syria.liveuamap.com/ar/2025/29-january-18-inauguration-of-ahmed-alsharaa-as-president,22733194,1 الشهر منذ,33.51709,36.25295
01.02.2025,الناطق باسم إدارة العمليات العسكرية العقيد حسن عبد الغني: نعلن انتصار الثورة السورية العظيمة، واعتبار الثامن من كانون الأول من كل عام يوماً وطنياً.  مؤتمر_النصر,https://syria.liveuamap.com/ar/2025/29-january-18-spokesman-for-the-military-operations-department,22733197,1 الشهر منذ,33.51642,36.25223
02.02.2025,قالت الرئاسة التركية يوم الاثنين إن الرئيس الانتقالي السوري المعين حديثا أحمد الشرع سيزور أنقرة يوم الثلاثاء بدعوة من الرئيس التركي رجب طيب أردوغان.,https://syria.liveuamap.com/ar/2025/3-february-09-syrias-newly-appointed-transitional-president,22734284,1 الشهر منذ,39.92671,32.83951
02.02.2025,قوات سوريا الديمقراطية تلقي القبض على 13 مشتبهاً بالإرهاب خلال مداهمات في بلدة الكبر غرب دير الزور,https://isis.liveuamap.com/ar/2025/3-february-07-sdf-special-forces-captured-13-terror-suspects,22734343,1 الشهر منذ,35.7731,39.78836
02.02.2025,ارتفاع عدد قتلى انفجار منبج في ريف حلب الشرقي إلى 13,https://syria.liveuamap.com/ar/2025/3-february-07-death-toll-from-manbij-explosion-in-eastern,22734195,1 الشهر منذ,36.52397,37.94901
02.02.2025,القوات الإسرائيلية تنسحب من مبنيي المحافظة والمحكمة في مدينة البعث بمحافظة القنيطرة جنوبي سوريا,https://syria.liveuamap.com/ar/2025/2-february-20-israeli-forces-withdraw-from-the-governorate,22734168,1 الشهر منذ,33.16904,35.87214
02.02.2025,ريف_حلب طيران مجهول الهوية يستهدف بـ 3 غارات جوية قبل قليل مقرات لميليشيات الأنجاس QSD فوق جبل الضيجة قرب بلدة صرين شرق حلب,https://syria.liveuamap.com/ar/2025/2-february-19-aleppo-countryside-unidentified-aircraft-targeted,22734167,1 الشهر منذ,36.59815,38.30624
02.02.2025,مصادر سورية: القوات الإسرائيلية تنسحب من النقاط العسكرية التي سيطرت عليها عقب سقوط نظام الأسد في محيط قرية القحطانية بريف القنيطرة,https://syria.liveuamap.com/ar/2025/2-february-18-syrian-sources-israeli-forces-withdraw-from,22734115,1 الشهر منذ,33.11382,35.89225
02.02.2025,مصادر سورية: انسحاب جزئي للقوات الإسرائيلية من سد المنطرة بريف القنيطرة الشمالي,https://syria.liveuamap.com/ar/2025/2-february-18-syrian-sources-partial-withdrawal-of-israeli,22734116,1 الشهر منذ,33.1175,35.8707
02.02.2025,الطيران المُسّير التركي يستهدف بغارة جوية مواقع ميليشيا «قسد» PKK/SDF في محيط سد تشرين.  Tishreen_Dam Tişrin Tishrin,https://syria.liveuamap.com/ar/2025/2-february-12-turkish-drones-target-sdf-militia-positions,22734092,1 الشهر منذ,36.36258,38.20633
02.02.2025,تفجير طائرة مسيرة انتحارية تابعة للجيش التركي عند سد تشرين دون ورود أنباء عن إصابات,https://syria.liveuamap.com/ar/2025/1-february-14-a-turkish-army-suicide-drone-detonated-at-tishreen,22733926,1 الشهر منذ,36.38313,38.17234
02.02.2025,جنوب سوريا: أفادت الأنباء أن رجلاً أطلق النار على جنود إسرائيليين في منطقة ترنجة (محافظة القنيطرة) الليلة الماضية، ثم داهم جيش  القرية واعتقل رجلين، وهذه هي الحادثة الأولى من نوعها في المنطقة,https://syria.liveuamap.com/ar/2025/1-february-10-south-syria-last-night-a-man-reportedly-opened,22733858,1 الشهر منذ,33.23294,35.84358
02.02.2025,الرئيس المصري يهنئ أحمد الشرع بتوليه منصب رئاسة سوريا خلال المرحلة الانتقالية,https://syria.liveuamap.com/ar/2025/1-february-01-egyptian-president-congratulates-ahmed-alsharaa,22733769,1 الشهر منذ,30.08867,31.31936
02.02.2025,"إذاعة الجيش الإسرائيلي: ""إرهابيون مسلحون"" أطلقوا النار على قوات الجيش الإسرائيلي في المنطقة العازلة في سوريا",https://syria.liveuamap.com/ar/2025/31-january-21-israel-army-radio-armed-militants-opened-fire,22733768,1 الشهر منذ,33.37985,35.83603
02.02.2025,"المرصد السوري: غارات جوية تركية استهدفت بلدة صرين ومحطيها ومحيط سد تشرين وقرقوزاق ومدرسة بقرية خروص في ريف عين العرب ""كوباني""",https://syria.liveuamap.com/ar/2025/31-january-21-turkish-airstrikes-targeted-the-town-of-sarrin,22733748,1 الشهر منذ,36.36592,38.22556
02.02.2025,الطيران الحربي التركي يستهدف بغارات جوية عنيفة مواقع مليشيا قسد في محيط سد_تشرين شرقي حلب.,https://syria.liveuamap.com/ar/2025/31-january-20-turkish-warplanes-target-sdf-positions-in-the,22733729,1 الشهر منذ,36.38231,38.19466
02.02.2025,مصدر في الخارجية التركية لرويترز: وزير الخارجية التركي ونظيره الروسي يبحثان هاتفيا الوضع في سوريا,https://syria.liveuamap.com/ar/2025/31-january-15-the-turkish-foreign-minister-and-his-russian,22733670,1 الشهر منذ,39.91102,32.81633
02.02.2025,القبض على عاطف نجيب ، ابن خالة رئيس النظام البائد بشار الأسد، ورئيس فرع الأمن السياسي السابق في درعا.n نجيب متهم بارتكاب جرائم في بداية الثورة السورية، من بينها اقتلاع أظـ.افـ.ر الأطـ.فال الذين طالبوا بالحرية في درعا من بينهم حمزة_الخطيب,https://syria.liveuamap.com/ar/2025/31-january-14-arrest-of-atef-najib-cousin-of-the-former-regime,22733668,1 الشهر منذ,32.61941,36.10537
02.02.2025,الاتحاد الأوروبي للعربية: نعمل على تعزيز الحضور الأوروبي في سوريا,https://syria.liveuamap.com/ar/2025/31-january-11-eu-we-are-working-to-strengthen-the-european,22733631,1 الشهر منذ,50.83864,4.37557
02.02.2025,استهدفت غارة إسرائيلية، حوالي الساعة الثالثة فجر اليوم الجمعة، الطريق الرئيسي الواصل بين سوريا ولبنان، والذي يربط بلدة الطفيل اللبنانية ببلدة عسال الورد السورية في القلمون الغربي.,https://israelpalestine.liveuamap.com/ar/2025/31-january-10-an-israeli-airstrike-targeted-the-main-road,22733624,1 الشهر منذ,33.84874,36.38054
02.02.2025,"أعلنت القيادة المركزية الأمريكية (CENTCOM) في بيانٍ رسمي عن تنفيذ غارة جوية دقيقة يوم 30 كانون الثاني في شمال غرب سوريا، استهدفت القيادي في جماعة حراس الدين المرتبطة بتنظيم القاعدة، محمد صلاح الزبير  ووفقًا للبيان، أكدت القوات الأمريكية نجاح العملية في تحييد ""الزبير"" الذي وصفته…",https://syria.liveuamap.com/ar/2025/31-january-09-the-us-central-command-centcom-announced-in,22733613,1 الشهر منذ,38.86879,-77.05592
02.02.2025,الجيش الأميركي يقول إنه قتل قياديا بارزا في جماعة حراس الدين التابعة لتنظيم القاعدة في غارة جوية بشمال غرب سوريا,https://syria.liveuamap.com/ar/2025/31-january-08-the-us-military-says-it-has-killed-a-senior,22733591,1 الشهر منذ,38.86818,-77.05553
02.02.2025,وحدات مدفعية تابعة للقوات المسلحة التركية تقصف أهدافاً لقوات سوريا الديمقراطية في منطقة أبو راسين شرقي رأس العين,https://syria.liveuamap.com/ar/2025/31-january-07-turkish-armed-forces-artillery-units-hit-sdf,22733563,1 الشهر منذ,36.84581,40.32944
02.02.2025,شنت طائرة تابعة للتحالف الدولي غارة جوية على هدف قرب بلدة باتبو جنوب سرمدا,https://syria.liveuamap.com/ar/2025/30-january-20-an-international-coalition-aircraft-launched,22733500,1 الشهر منذ,36.13273,36.73759
02.02.2025,الشرع: سنركز في الفترة المقبلة على بناء مؤسسات قوية للدولة لا فساد فيها ولا رشاوى وتحقيق السلم الأهلي وملاحقة ين ممن ولغوا في الدم السوري,https://syria.liveuamap.com/ar/2025/30-january-20-alsharaa-we-will-focus-in-the-coming-period,22733487,1 الشهر منذ,33.51433,36.25059
02.02.2025,أحمد الشرع في أول خطاب قصير له منذ توليه منصبه أمس: يقول إنه ليس حاكماً بل خادماً؛ سيشكل حكومة شاملة من مختلف مكونات سورية؛ سيعلن عن لجنة تحضيرية لمؤتمر الحوار الوطني,https://syria.liveuamap.com/ar/2025/30-january-19-ahmed-sharaa-in-short-first-speech-since-taking,22733486,1 الشهر منذ,33.51648,36.25145
02.02.2025,الشرع:  سوريا تحررت من نظام مجرم    سوريا تحررت بفضل تضحيات جميع السوريين بالداخل والخارج    نفتح فصلا جديدا في تاريخ سوريا  قناة_العربية,https://syria.liveuamap.com/ar/2025/30-january-19-alsharaa-in-a-speech-syria-was-liberated-from,22733485,1 الشهر منذ,33.51705,36.25145
02.02.2025,اشتباكات بين الجيش الوطني وقوات سوريا الديمقراطية على خط دير حافر شرقي منبج,https://syria.liveuamap.com/ar/2025/30-january-19-clashes-are-taking-place-between-sna-and-sdf,22733488,1 الشهر منذ,36.19431,37.7504
02.02.2025,"جلسة استماع للجنة الاستخبارات بمجلس الشيوخ الأمريكي لتأكيد تعيين تولسي جابارد في منصب مدير الاستخبارات الوطنية الأمريكية. قالت تولسي جابارد: ""أنا أكره تنظيم القاعدة. أكره أن يكون لدينا قادة يتقربون من المتطرفين الإسلاميين، ويقللون من شأنهم إلى ما يسمى بالمتمردين"". تقول إن سوريا  تحت سيطرة فرع من تنظيم القاعدة وزعيم ""رقص في الشوارع"" في الحادي عشر من سبتمبر.",https://syria.liveuamap.com/ar/2025/30-january-16-senate-intelligence-committee-confirmation,22733443,1 الشهر منذ,38.88968,-77.00901
02.02.2025,الخارجية القطرية: رئيس الوزراء وزير الخارجية بحث مع وزير الخارجية الإيراني في الدوحة الأوضاع في غزة وسوريا,https://syria.liveuamap.com/ar/2025/30-january-14-qatari-foreign-ministry-prime-minister-and,22733436,1 الشهر منذ,25.34354,51.51923
02.02.2025,قصفت القوات المسلحة التركية بنيران المدفعية أهدافاً لقوات سوريا الديمقراطية في قرية أم براميل على محور عين عيسى.,https://syria.liveuamap.com/ar/2025/30-january-14-the-turkish-armed-forces-hit-sdf-targets-in,22733431,1 الشهر منذ,36.40248,38.85229
02.02.2025,سمو الأمير المفدى يصل إلى العاصمة دمشق في زيارة رسمية إلى الجمهورية العربية السورية الشقيقة، وفي مقدمة مستقبليه أخوه فخامة السيد أحمد الشرع رئيس الجمهورية العربية السورية. قطر سوريا,https://syria.liveuamap.com/ar/2025/30-january-09-qatari-emir-arrives-in-the-capital-damascus,22733391,1 الشهر منذ,33.40865,36.51049
03.02.2025,مدير منظمة الصحة العالمية: قلقون من العنف المستمر في مدينة منبج السورية,https://syria.liveuamap.com/ar/2025/4-february-22-who-director-we-are-concerned-about-the-ongoing,22734771,1 الشهر منذ,46.22419,6.10066
03.02.2025,أردوغان: تم افتتاح قنصليتنا بشكل رسمي في حلب.,https://syria.liveuamap.com/ar/2025/4-february-18-erdogan-our-consulate-has-been-officially-opened,22734645,1 الشهر منذ,39.93106,32.79813
03.02.2025,الرئيس السوري: بدأنا العمل مع تركيا في ملفات كبرى على رأسها بناء استراتيجية مشتركة لمواجهة التهديدات الأمنية,https://syria.liveuamap.com/ar/2025/4-february-18-ahmed-al-sharaa-we-have-started-working-with,22734644,1 الشهر منذ,39.93014,32.79831
03.02.2025,أصحاب المحلات التجارية في مدينة منبج بريف حلب ينفذون إضرابًا عامًا احتجاجا على التفجيرات الأخيرة التي ضربت المدينة وراح ضحيتها قتلى من المدنيينفيديو,https://syria.liveuamap.com/ar/2025/4-february-18-shop-owners-in-the-city-of-manbij-in-the-countryside,22734643,1 الشهر منذ,36.52631,37.95467
03.02.2025,أردوغان: العقوبات الغربية على سوريا تمثل عقبة أمام نهوض البلاد وسنعمل على دعم الجهود لرفعها,https://syria.liveuamap.com/ar/2025/4-february-19-erdogan-western-sanctions-on-syria-are-an-obstacle,22734640,1 الشهر منذ,39.92914,32.79897
03.02.2025,الشرع: ناقشنا مع الرئيس التركي ضرورة انسحاب إسرائيل من المنطقة العازلة,https://syria.liveuamap.com/ar/2025/4-february-17-alsharaa-we-discussed-with-the-turkish-president,22734641,1 الشهر منذ,39.93021,32.7967
03.02.2025,الشرع: بدأنا العمل على تعزيز العلاقات بين سوريا وتركيا في مختلف المجالات,https://syria.liveuamap.com/ar/2025/4-february-17-alsharaa-we-have-started-working-to-strengthen,22734642,1 الشهر منذ,39.93116,32.79815
03.02.2025,الشرع: الشعب السوري لن ينسى الوقفة التاريخية لدولة تركيا مع شعبنا,https://syria.liveuamap.com/ar/2025/4-february-17-alsharaa-the-syrian-people-will-not-forget,22734648,1 الشهر منذ,39.93037,32.79858
03.02.2025,الرئيس السوري: العلاقة بين سوريا وتركيا ممتدة عبر التاريخ والجغرافيا,https://syria.liveuamap.com/ar/2025/4-february-17-ahmed-al-sharaa-the-relationship-between-syria,22734646,1 الشهر منذ,39.92936,32.79768
03.02.2025,أردوغان: من الضروري أن تقدم البلدان العربية والإسلامية الدعم للإدارة الجديدة في سوريا,https://syria.liveuamap.com/ar/2025/4-february-17-erdogan-it-is-necessary-for-arab-and-islamic,22734652,1 الشهر منذ,39.92944,32.79793
03.02.2025,أردوغان: سنساهم في الجهود الرامية لرفع العقوبات المفروضة على سوريا,https://syria.liveuamap.com/ar/2025/4-february-17-erdogan-we-will-contribute-to-efforts-to-lift,22734649,1 الشهر منذ,39.92762,32.79968
03.02.2025,أردوغان: أكدت للرئيس السوري استعدادنا لتقديم الدعم اللازم في مواجهة التنظيمات بكل أشكالها,https://syria.liveuamap.com/ar/2025/4-february-17-erdogan-i-assured-the-syrian-president-of-our,22734639,1 الشهر منذ,39.93127,32.79768
03.02.2025,أردوغان: نؤكد على احترام سيادة سوريا ووحدة أراضيها,https://syria.liveuamap.com/ar/2025/4-february-17-erdogan-we-stress-respect-for-syrias-sovereignty,22734638,1 الشهر منذ,39.93069,32.79841
03.02.2025,الرئيس التركي: سنعمل بكل مؤسساتنا لرفع العلاقة مع سوريا للمستوى الاستراتيجي,https://syria.liveuamap.com/ar/2025/4-february-17-turkish-president-we-will-work-with-all-our,22734637,1 الشهر منذ,39.93057,32.79894
03.02.2025,أردوغان: هذه الزيارة للرئيس السوري لبلدنا تاريخية,https://syria.liveuamap.com/ar/2025/4-february-17-erdogan-this-visit-of-the-syrian-president,22734636,1 الشهر منذ,39.93055,32.79833
03.02.2025,أردوغان: فصل جديد بدأ ليس في سوريا فحسب بل في المنطقة كلها,https://syria.liveuamap.com/ar/2025/4-february-17-erdogan-a-new-chapter-has-begun-not-only-in,22734633,1 الشهر منذ,39.93001,32.79746
03.02.2025,أردوغان: الشعب السوري عانى على مدى أكثر من 13 عاما من الظلم والقتل بكل أشكاله,https://syria.liveuamap.com/ar/2025/4-february-17-erdogan-the-syrian-people-have-suffered-for,22734632,1 الشهر منذ,39.93043,32.79785
03.02.2025,الرئيس السوري أحمد الشرع يلتقي نظيره التركي رجب طيب أردوغان في أنقرة، لبحث المستجدات السياسية والتعاون الثنائي بين البلدين.n,https://syria.liveuamap.com/ar/2025/4-february-14-syrian-president-ahmed-alsharaa-meets-his-turkish,22734623,1 الشهر منذ,39.93132,32.79783
03.02.2025,الرقة: طائرات تركية تستهدف مواقع ميليشيا قسد داخل اللواء 93 في عين عيسى بغارة جوية,https://syria.liveuamap.com/ar/2025/4-february-14-raqqa-turkish-aircraft-target-sdf-positions,22734625,1 الشهر منذ,36.35214,38.83804
03.02.2025,مسؤول إدارة الأمن العام في محافظة دمشق: إدارة الأمن العام تطوق منطقة السومرية وتحرر أربعة مختطفين وتعتقل الخلية الخاطفة (وكالة سانا),https://syria.liveuamap.com/ar/2025/4-february-13-damascus-public-security-directorate-official,22734601,1 الشهر منذ,33.48471,36.2178
03.02.2025,طائرات حربية تركية (F16) تجدد غاراتها على مواقع مليشيا قسد في مدينة سد تشرين السكنية,https://syria.liveuamap.com/ar/2025/4-february-13-turkish-warplanes-f16-renew-airstrikes-on-sdf,22734602,1 الشهر منذ,36.38773,38.16158
03.02.2025,من المتوقع أن يناقش الرئيس السوري الانتقالي أحمد الشرع والرئيس التركي رجب طيب أردوغان اتفاقية دفاع مشترك في أنقرة يوم الثلاثاء، بما في ذلك إنشاء قواعد جوية تركية في وسط سوريا وتدريب الجيش السوري الجديد، حسبما قالت أربعة مصادر مطلعة على الأمر.,https://syria.liveuamap.com/ar/2025/4-february-10-syrias-transitional-president-ahmed-alsharaa,22734574,1 الشهر منذ,39.92775,32.79882
03.02.2025,"الرئيس السوري: يوجد حوار بيننا وبين ""قسد"" لحل بعض الخلافات، وسيتم تشكيل لجنة تحضيرية لاختيار ممثلين عن الشعب السوري في مؤتمر الحوار الوطني.(التلفزيون العربي)",https://syria.liveuamap.com/ar/2025/4-february-08-syrian-president-there-is-a-dialogue-between,22734560,1 الشهر منذ,33.51821,36.25002
03.02.2025,وتقصف القوات التركية والفصائل الموالية لها أهدافاً لقوات سوريا الديمقراطية الواقعة على خط سد تشرين بنيران المدفعية.,https://syria.liveuamap.com/ar/2025/3-february-20-the-turkish-armed-forces-and-factions-are-hitting,22734436,1 الشهر منذ,36.38614,38.15002
03.02.2025,يكشف الشرع السوري أن دمشق طلبت من تركيا وقف الهجوم الشامل ضد قوات سوريا الديمقراطية لإفساح المجال للمفاوضات، لكنه يضيف أنه ليس متفائلاً كثيراً بشأن التوصل إلى اتفاق مع قوات سوريا الديمقراطية — الإيكونوميست,https://syria.liveuamap.com/ar/2025/3-february-19-syrias-al-sharaa-reveals-that-damascus-asked,22734380,1 الشهر منذ,33.51692,36.25117
03.02.2025,الرئيس السوري أحمد الشرع لتلفزيون سوريا: الفترة الزمنية للوصول إلى انتخابات رئاسية تحتاج ما بين 4 و5 سنوات,https://syria.liveuamap.com/ar/2025/3-february-17-syrian-president-ahmad-alsharaa-to-syria-tv,22734365,1 الشهر منذ,33.51804,36.25278
03.02.2025,الشرع: نرفض أي مساع لتقسيم سوريا أو انفصال أي جزء منها وسنشكل جيشا وطنيا لكل السوريين,https://syria.liveuamap.com/ar/2025/3-february-17-alsharaa-we-reject-any-efforts-to-divide-syria,22734363,1 الشهر منذ,33.51653,36.25307
03.02.2025,الرئيس السوري: قسد أبدت استعدادها لحصر السلاح بيد الدولة,https://syria.liveuamap.com/ar/2025/3-february-17-syrian-president-sdf-expressed-its-readiness,22734362,1 الشهر منذ,33.51767,36.2519
03.02.2025,"طائرات حربية تركية (F16) تستهدف بغارة جوية مواقع الميليشيات في الجبال المحيطة بقرية ""زور مغار"" المقابلة لمدينة جرابلس.",https://syria.liveuamap.com/ar/2025/3-february-16-turkish-warplanes-f16-target--militia-positions,22734359,1 الشهر منذ,36.83125,38.04102
03.02.2025,"سلاح الجو التركي يشن عشرات الغارات بالصواريخ الفراغية اتجاه مواقع ميليشيا قسد المتمركزة بقرية ""سبته"" ومحيط بلدة ""صرين"" جنوبي عين العرب شرق حلب شمال سوريا",https://syria.liveuamap.com/ar/2025/3-february-14-the-turkish-air-force-launches-dozens-of-raids,22734352,1 الشهر منذ,36.5718,38.30086
03.02.2025,طائرات حربية تركية من طراز (F16) تستهدف مواقع ميليشيا قسد في مطار صرين العسكري ومحيطه جنوب عين العرب/كوباني بعدة غارات جوية,https://syria.liveuamap.com/ar/2025/3-february-14-turkish-warplanes-f16-target-sdf-militia-positions,22734349,1 الشهر منذ,36.64595,38.29893
03.02.2025,إعلام سوري: انقطاع خدمات الإنترنت عن مناطق عديدة في البلاد,https://syria.liveuamap.com/ar/2025/3-february-13-syrian-media-internet-services-cut-off-in-many,22734344,1 الشهر منذ,33.51277,36.31445
03.02.2025,تمكنت قوات التحالف الدولي بقيادة الولايات المتحدة، الأحد، من القبض على قيادي في تنظيم الدولة الإسلامية (داعش) خلال غارة جوية ليلية في ريف دير الزور شرقي سوريا.,https://syria.liveuamap.com/ar/2025/3-february-12-the-usled-global-coalition-forces-captured,22734333,1 الشهر منذ,34.77315,40.72563
03.02.2025,"نفت قوات سوريا الديمقراطية التي يقودها الأكراد تورطها في هجوم السيارة المفخخة الذي وقع يوم الاثنين بالقرب من منبج شمال سوريا والذي أسفر عن مقتل 15 شخصا، قائلة إن مثل هذه الأعمال يقوم بها الجيش الوطني السوري ""لإرهاب"" السكان من الاحتجاج على الظروف المعيشية السيئة - بيان",https://syria.liveuamap.com/ar/2025/3-february-12-the-kurdishled-sdf-denies-involvement-in-mondays,22734327,1 الشهر منذ,36.87929,38.35335
03.02.2025,قال مسؤولون في الإدارة الذاتية لشمال وشرق سوريا إن طائرات حربية تركية استهدفت محطة المياه الرئيسية في مدينة كوباني شمال سوريا، ما أدى إلى خروجها عن الخدمة.,https://syria.liveuamap.com/ar/2025/3-february-11-aanes-officials-say-turkish-warplanes-targeted,22734297,1 الشهر منذ,36.8871,38.35313
03.02.2025,قُتل 22 شخصاً على الأقل، معظمهم من العاملات الزراعيات، في هجوم بسيارة مفخخة في منطقة منبج بمحافظة حلب في سوريا.,https://syria.liveuamap.com/ar/2025/3-february-11-at-least-22-people-mostly-women-agricultural,22734301,1 الشهر منذ,36.52576,37.95536
03.02.2025,قالت الرئاسة التركية يوم الاثنين إن الرئيس الانتقالي السوري المعين حديثا أحمد الشرع سيزور أنقرة يوم الثلاثاء بدعوة من الرئيس التركي رجب طيب أردوغان.,https://syria.liveuamap.com/ar/2025/3-february-09-syrias-newly-appointed-transitional-president,22734284,1 الشهر منذ,39.92671,32.83951
03.02.2025,قوات سوريا الديمقراطية تلقي القبض على 13 مشتبهاً بالإرهاب خلال مداهمات في بلدة الكبر غرب دير الزور,https://isis.liveuamap.com/ar/2025/3-february-07-sdf-special-forces-captured-13-terror-suspects,22734343,1 الشهر منذ,35.7731,39.78836
03.02.2025,ارتفاع عدد قتلى انفجار منبج في ريف حلب الشرقي إلى 13,https://syria.liveuamap.com/ar/2025/3-february-07-death-toll-from-manbij-explosion-in-eastern,22734195,1 الشهر منذ,36.52397,37.94901
04.02.2025,البنتاغون يعد خططا لسحب جميع القوات الأميركية من سوريا بعد تصريحات ترامب الأخيرة: إن بي سي,https://syria.liveuamap.com/ar/2025/5-february-10-the-pentagon-is-drafting-plans-to-withdraw,22734883,1 الشهر منذ,38.87229,-77.0563
04.02.2025,طائرات  التركي تقصف قرية زور مغارة في كوباني عرض المزيد (  وكالة أنباء هاوار ANHA    لحظة بلحظة عبر الواتس اب,https://syria.liveuamap.com/ar/2025/5-february-09-turkish-aircraft-bomb-the-village-of-zor-maghara,22734884,1 الشهر منذ,36.83235,38.03741
04.02.2025,مدير منظمة الصحة العالمية: قلقون من العنف المستمر في مدينة منبج السورية,https://syria.liveuamap.com/ar/2025/4-february-22-who-director-we-are-concerned-about-the-ongoing,22734771,1 الشهر منذ,46.22419,6.10066
04.02.2025,أردوغان: تم افتتاح قنصليتنا بشكل رسمي في حلب.,https://syria.liveuamap.com/ar/2025/4-february-18-erdogan-our-consulate-has-been-officially-opened,22734645,1 الشهر منذ,39.93106,32.79813
04.02.2025,الرئيس السوري: بدأنا العمل مع تركيا في ملفات كبرى على رأسها بناء استراتيجية مشتركة لمواجهة التهديدات الأمنية,https://syria.liveuamap.com/ar/2025/4-february-18-ahmed-al-sharaa-we-have-started-working-with,22734644,1 الشهر منذ,39.93014,32.79831
04.02.2025,أصحاب المحلات التجارية في مدينة منبج بريف حلب ينفذون إضرابًا عامًا احتجاجا على التفجيرات الأخيرة التي ضربت المدينة وراح ضحيتها قتلى من المدنيينفيديو,https://syria.liveuamap.com/ar/2025/4-february-18-shop-owners-in-the-city-of-manbij-in-the-countryside,22734643,1 الشهر منذ,36.52631,37.95467
04.02.2025,أردوغان: العقوبات الغربية على سوريا تمثل عقبة أمام نهوض البلاد وسنعمل على دعم الجهود لرفعها,https://syria.liveuamap.com/ar/2025/4-february-19-erdogan-western-sanctions-on-syria-are-an-obstacle,22734640,1 الشهر منذ,39.92914,32.79897
04.02.2025,الشرع: ناقشنا مع الرئيس التركي ضرورة انسحاب إسرائيل من المنطقة العازلة,https://syria.liveuamap.com/ar/2025/4-february-17-alsharaa-we-discussed-with-the-turkish-president,22734641,1 الشهر منذ,39.93021,32.7967
04.02.2025,الشرع: بدأنا العمل على تعزيز العلاقات بين سوريا وتركيا في مختلف المجالات,https://syria.liveuamap.com/ar/2025/4-february-17-alsharaa-we-have-started-working-to-strengthen,22734642,1 الشهر منذ,39.93116,32.79815
04.02.2025,الشرع: الشعب السوري لن ينسى الوقفة التاريخية لدولة تركيا مع شعبنا,https://syria.liveuamap.com/ar/2025/4-february-17-alsharaa-the-syrian-people-will-not-forget,22734648,1 الشهر منذ,39.93037,32.79858
04.02.2025,الرئيس السوري: العلاقة بين سوريا وتركيا ممتدة عبر التاريخ والجغرافيا,https://syria.liveuamap.com/ar/2025/4-february-17-ahmed-al-sharaa-the-relationship-between-syria,22734646,1 الشهر منذ,39.92936,32.79768
04.02.2025,أردوغان: من الضروري أن تقدم البلدان العربية والإسلامية الدعم للإدارة الجديدة في سوريا,https://syria.liveuamap.com/ar/2025/4-february-17-erdogan-it-is-necessary-for-arab-and-islamic,22734652,1 الشهر منذ,39.92944,32.79793
04.02.2025,أردوغان: سنساهم في الجهود الرامية لرفع العقوبات المفروضة على سوريا,https://syria.liveuamap.com/ar/2025/4-february-17-erdogan-we-will-contribute-to-efforts-to-lift,22734649,1 الشهر منذ,39.92762,32.79968
04.02.2025,أردوغان: أكدت للرئيس السوري استعدادنا لتقديم الدعم اللازم في مواجهة التنظيمات بكل أشكالها,https://syria.liveuamap.com/ar/2025/4-february-17-erdogan-i-assured-the-syrian-president-of-our,22734639,1 الشهر منذ,39.93127,32.79768
04.02.2025,أردوغان: نؤكد على احترام سيادة سوريا ووحدة أراضيها,https://syria.liveuamap.com/ar/2025/4-february-17-erdogan-we-stress-respect-for-syrias-sovereignty,22734638,1 الشهر منذ,39.93069,32.79841
04.02.2025,الرئيس التركي: سنعمل بكل مؤسساتنا لرفع العلاقة مع سوريا للمستوى الاستراتيجي,https://syria.liveuamap.com/ar/2025/4-february-17-turkish-president-we-will-work-with-all-our,22734637,1 الشهر منذ,39.93057,32.79894
04.02.2025,أردوغان: هذه الزيارة للرئيس السوري لبلدنا تاريخية,https://syria.liveuamap.com/ar/2025/4-february-17-erdogan-this-visit-of-the-syrian-president,22734636,1 الشهر منذ,39.93055,32.79833
04.02.2025,أردوغان: فصل جديد بدأ ليس في سوريا فحسب بل في المنطقة كلها,https://syria.liveuamap.com/ar/2025/4-february-17-erdogan-a-new-chapter-has-begun-not-only-in,22734633,1 الشهر منذ,39.93001,32.79746
04.02.2025,أردوغان: الشعب السوري عانى على مدى أكثر من 13 عاما من الظلم والقتل بكل أشكاله,https://syria.liveuamap.com/ar/2025/4-february-17-erdogan-the-syrian-people-have-suffered-for,22734632,1 الشهر منذ,39.93043,32.79785
04.02.2025,الرئيس السوري أحمد الشرع يلتقي نظيره التركي رجب طيب أردوغان في أنقرة، لبحث المستجدات السياسية والتعاون الثنائي بين البلدين.n,https://syria.liveuamap.com/ar/2025/4-february-14-syrian-president-ahmed-alsharaa-meets-his-turkish,22734623,1 الشهر منذ,39.93132,32.79783
04.02.2025,الرقة: طائرات تركية تستهدف مواقع ميليشيا قسد داخل اللواء 93 في عين عيسى بغارة جوية,https://syria.liveuamap.com/ar/2025/4-february-14-raqqa-turkish-aircraft-target-sdf-positions,22734625,1 الشهر منذ,36.35214,38.83804
04.02.2025,مسؤول إدارة الأمن العام في محافظة دمشق: إدارة الأمن العام تطوق منطقة السومرية وتحرر أربعة مختطفين وتعتقل الخلية الخاطفة (وكالة سانا),https://syria.liveuamap.com/ar/2025/4-february-13-damascus-public-security-directorate-official,22734601,1 الشهر منذ,33.48471,36.2178
04.02.2025,طائرات حربية تركية (F16) تجدد غاراتها على مواقع مليشيا قسد في مدينة سد تشرين السكنية,https://syria.liveuamap.com/ar/2025/4-february-13-turkish-warplanes-f16-renew-airstrikes-on-sdf,22734602,1 الشهر منذ,36.38773,38.16158
04.02.2025,من المتوقع أن يناقش الرئيس السوري الانتقالي أحمد الشرع والرئيس التركي رجب طيب أردوغان اتفاقية دفاع مشترك في أنقرة يوم الثلاثاء، بما في ذلك إنشاء قواعد جوية تركية في وسط سوريا وتدريب الجيش السوري الجديد، حسبما قالت أربعة مصادر مطلعة على الأمر.,https://syria.liveuamap.com/ar/2025/4-february-10-syrias-transitional-president-ahmed-alsharaa,22734574,1 الشهر منذ,39.92775,32.79882
04.02.2025,"الرئيس السوري: يوجد حوار بيننا وبين ""قسد"" لحل بعض الخلافات، وسيتم تشكيل لجنة تحضيرية لاختيار ممثلين عن الشعب السوري في مؤتمر الحوار الوطني.(التلفزيون العربي)",https://syria.liveuamap.com/ar/2025/4-february-08-syrian-president-there-is-a-dialogue-between,22734560,1 الشهر منذ,33.51821,36.25002
04.02.2025,وتقصف القوات التركية والفصائل الموالية لها أهدافاً لقوات سوريا الديمقراطية الواقعة على خط سد تشرين بنيران المدفعية.,https://syria.liveuamap.com/ar/2025/3-february-20-the-turkish-armed-forces-and-factions-are-hitting,22734436,1 الشهر منذ,36.38614,38.15002
04.02.2025,يكشف الشرع السوري أن دمشق طلبت من تركيا وقف الهجوم الشامل ضد قوات سوريا الديمقراطية لإفساح المجال للمفاوضات، لكنه يضيف أنه ليس متفائلاً كثيراً بشأن التوصل إلى اتفاق مع قوات سوريا الديمقراطية — الإيكونوميست,https://syria.liveuamap.com/ar/2025/3-february-19-syrias-al-sharaa-reveals-that-damascus-asked,22734380,1 الشهر منذ,33.51692,36.25117
04.02.2025,الرئيس السوري أحمد الشرع لتلفزيون سوريا: الفترة الزمنية للوصول إلى انتخابات رئاسية تحتاج ما بين 4 و5 سنوات,https://syria.liveuamap.com/ar/2025/3-february-17-syrian-president-ahmad-alsharaa-to-syria-tv,22734365,1 الشهر منذ,33.51804,36.25278
04.02.2025,الشرع: نرفض أي مساع لتقسيم سوريا أو انفصال أي جزء منها وسنشكل جيشا وطنيا لكل السوريين,https://syria.liveuamap.com/ar/2025/3-february-17-alsharaa-we-reject-any-efforts-to-divide-syria,22734363,1 الشهر منذ,33.51653,36.25307
04.02.2025,الرئيس السوري: قسد أبدت استعدادها لحصر السلاح بيد الدولة,https://syria.liveuamap.com/ar/2025/3-february-17-syrian-president-sdf-expressed-its-readiness,22734362,1 الشهر منذ,33.51767,36.2519
05.02.2025,إدارة العمليات العسكرية تبسط سيطرتها التامة على قرية حاويك الحدودية بريف القصير الغربي وتواصل عمليات تمشيط الحدود لطرد فلول حزب الله الإرهابي من المنطقة,https://syria.liveuamap.com/ar/2025/6-february-10-the-military-operations-department-extends,22735135,1 الشهر منذ,34.54826,36.42431
05.02.2025,قوات سوريا الديمقراطية تشن عمليات أمنية واسعة في ريف الحسكة الجنوبي تستهدف مسلحي داعش بمشاركة قوات التحالف الدولي بقيادة الولايات المتحدة,https://syria.liveuamap.com/ar/2025/6-february-10-sdf-forces-launched-large-scale-security-operations,22735106,1 الشهر منذ,36.04651,40.73181
05.02.2025,قوات من قيادة الأمن العام تدخل عفرين,https://syria.liveuamap.com/ar/2025/6-february-10-general-security-command-forces-are-entering,22735107,1 الشهر منذ,36.50685,36.86428
05.02.2025,"رئيس فرنسا ""ماكرون"" اتصل بالرئيس السوري ""احمد الشرع"" وهنئه بمناسبة تولية رئيساً للجمهورية العربية السورية",https://syria.liveuamap.com/ar/2025/5-february-19-french-president-macron-called-syrian-president,22734938,1 الشهر منذ,48.86955,2.3164
05.02.2025,قالت هيئة المعابر والحدود السورية إنها وقعت عقدا جديدا مع مجموعة CMA CGM الفرنسية لتشغيل مرفأ اللاذقية، مضيفة أن الشركة ستسدد كافة المستحقات السابقة للطرفين.,https://syria.liveuamap.com/ar/2025/5-february-15-syria-has-signed-a-new-contract-with-french,22734929,1 الشهر منذ,35.50931,35.7653
05.02.2025,البنتاغون يعد خططا لسحب جميع القوات الأميركية من سوريا بعد تصريحات ترامب الأخيرة: إن بي سي,https://syria.liveuamap.com/ar/2025/5-february-10-the-pentagon-is-drafting-plans-to-withdraw,22734883,1 الشهر منذ,38.87229,-77.0563
05.02.2025,طائرات  التركي تقصف قرية زور مغارة في كوباني عرض المزيد (  وكالة أنباء هاوار ANHA    لحظة بلحظة عبر الواتس اب,https://syria.liveuamap.com/ar/2025/5-february-09-turkish-aircraft-bomb-the-village-of-zor-maghara,22734884,1 الشهر منذ,36.83235,38.03741
05.02.2025,مدير منظمة الصحة العالمية: قلقون من العنف المستمر في مدينة منبج السورية,https://syria.liveuamap.com/ar/2025/4-february-22-who-director-we-are-concerned-about-the-ongoing,22734771,1 الشهر منذ,46.22419,6.10066
05.02.2025,أردوغان: تم افتتاح قنصليتنا بشكل رسمي في حلب.,https://syria.liveuamap.com/ar/2025/4-february-18-erdogan-our-consulate-has-been-officially-opened,22734645,1 الشهر منذ,39.93106,32.79813
05.02.2025,الرئيس السوري: بدأنا العمل مع تركيا في ملفات كبرى على رأسها بناء استراتيجية مشتركة لمواجهة التهديدات الأمنية,https://syria.liveuamap.com/ar/2025/4-february-18-ahmed-al-sharaa-we-have-started-working-with,22734644,1 الشهر منذ,39.93014,32.79831
05.02.2025,أصحاب المحلات التجارية في مدينة منبج بريف حلب ينفذون إضرابًا عامًا احتجاجا على التفجيرات الأخيرة التي ضربت المدينة وراح ضحيتها قتلى من المدنيينفيديو,https://syria.liveuamap.com/ar/2025/4-february-18-shop-owners-in-the-city-of-manbij-in-the-countryside,22734643,1 الشهر منذ,36.52631,37.95467
05.02.2025,أردوغان: العقوبات الغربية على سوريا تمثل عقبة أمام نهوض البلاد وسنعمل على دعم الجهود لرفعها,https://syria.liveuamap.com/ar/2025/4-february-19-erdogan-western-sanctions-on-syria-are-an-obstacle,22734640,1 الشهر منذ,39.92914,32.79897
05.02.2025,الشرع: ناقشنا مع الرئيس التركي ضرورة انسحاب إسرائيل من المنطقة العازلة,https://syria.liveuamap.com/ar/2025/4-february-17-alsharaa-we-discussed-with-the-turkish-president,22734641,1 الشهر منذ,39.93021,32.7967
05.02.2025,الشرع: بدأنا العمل على تعزيز العلاقات بين سوريا وتركيا في مختلف المجالات,https://syria.liveuamap.com/ar/2025/4-february-17-alsharaa-we-have-started-working-to-strengthen,22734642,1 الشهر منذ,39.93116,32.79815
05.02.2025,الشرع: الشعب السوري لن ينسى الوقفة التاريخية لدولة تركيا مع شعبنا,https://syria.liveuamap.com/ar/2025/4-february-17-alsharaa-the-syrian-people-will-not-forget,22734648,1 الشهر منذ,39.93037,32.79858
05.02.2025,الرئيس السوري: العلاقة بين سوريا وتركيا ممتدة عبر التاريخ والجغرافيا,https://syria.liveuamap.com/ar/2025/4-february-17-ahmed-al-sharaa-the-relationship-between-syria,22734646,1 الشهر منذ,39.92936,32.79768
05.02.2025,أردوغان: من الضروري أن تقدم البلدان العربية والإسلامية الدعم للإدارة الجديدة في سوريا,https://syria.liveuamap.com/ar/2025/4-february-17-erdogan-it-is-necessary-for-arab-and-islamic,22734652,1 الشهر منذ,39.92944,32.79793
05.02.2025,أردوغان: سنساهم في الجهود الرامية لرفع العقوبات المفروضة على سوريا,https://syria.liveuamap.com/ar/2025/4-february-17-erdogan-we-will-contribute-to-efforts-to-lift,22734649,1 الشهر منذ,39.92762,32.79968
05.02.2025,أردوغان: أكدت للرئيس السوري استعدادنا لتقديم الدعم اللازم في مواجهة التنظيمات بكل أشكالها,https://syria.liveuamap.com/ar/2025/4-february-17-erdogan-i-assured-the-syrian-president-of-our,22734639,1 الشهر منذ,39.93127,32.79768
05.02.2025,أردوغان: نؤكد على احترام سيادة سوريا ووحدة أراضيها,https://syria.liveuamap.com/ar/2025/4-february-17-erdogan-we-stress-respect-for-syrias-sovereignty,22734638,1 الشهر منذ,39.93069,32.79841
05.02.2025,الرئيس التركي: سنعمل بكل مؤسساتنا لرفع العلاقة مع سوريا للمستوى الاستراتيجي,https://syria.liveuamap.com/ar/2025/4-february-17-turkish-president-we-will-work-with-all-our,22734637,1 الشهر منذ,39.93057,32.79894
05.02.2025,أردوغان: هذه الزيارة للرئيس السوري لبلدنا تاريخية,https://syria.liveuamap.com/ar/2025/4-february-17-erdogan-this-visit-of-the-syrian-president,22734636,1 الشهر منذ,39.93055,32.79833
05.02.2025,أردوغان: فصل جديد بدأ ليس في سوريا فحسب بل في المنطقة كلها,https://syria.liveuamap.com/ar/2025/4-february-17-erdogan-a-new-chapter-has-begun-not-only-in,22734633,1 الشهر منذ,39.93001,32.79746
05.02.2025,أردوغان: الشعب السوري عانى على مدى أكثر من 13 عاما من الظلم والقتل بكل أشكاله,https://syria.liveuamap.com/ar/2025/4-february-17-erdogan-the-syrian-people-have-suffered-for,22734632,1 الشهر منذ,39.93043,32.79785
05.02.2025,الرئيس السوري أحمد الشرع يلتقي نظيره التركي رجب طيب أردوغان في أنقرة، لبحث المستجدات السياسية والتعاون الثنائي بين البلدين.n,https://syria.liveuamap.com/ar/2025/4-february-14-syrian-president-ahmed-alsharaa-meets-his-turkish,22734623,1 الشهر منذ,39.93132,32.79783
05.02.2025,الرقة: طائرات تركية تستهدف مواقع ميليشيا قسد داخل اللواء 93 في عين عيسى بغارة جوية,https://syria.liveuamap.com/ar/2025/4-february-14-raqqa-turkish-aircraft-target-sdf-positions,22734625,1 الشهر منذ,36.35214,38.83804
05.02.2025,مسؤول إدارة الأمن العام في محافظة دمشق: إدارة الأمن العام تطوق منطقة السومرية وتحرر أربعة مختطفين وتعتقل الخلية الخاطفة (وكالة سانا),https://syria.liveuamap.com/ar/2025/4-february-13-damascus-public-security-directorate-official,22734601,1 الشهر منذ,33.48471,36.2178
05.02.2025,طائرات حربية تركية (F16) تجدد غاراتها على مواقع مليشيا قسد في مدينة سد تشرين السكنية,https://syria.liveuamap.com/ar/2025/4-february-13-turkish-warplanes-f16-renew-airstrikes-on-sdf,22734602,1 الشهر منذ,36.38773,38.16158
05.02.2025,من المتوقع أن يناقش الرئيس السوري الانتقالي أحمد الشرع والرئيس التركي رجب طيب أردوغان اتفاقية دفاع مشترك في أنقرة يوم الثلاثاء، بما في ذلك إنشاء قواعد جوية تركية في وسط سوريا وتدريب الجيش السوري الجديد، حسبما قالت أربعة مصادر مطلعة على الأمر.,https://syria.liveuamap.com/ar/2025/4-february-10-syrias-transitional-president-ahmed-alsharaa,22734574,1 الشهر منذ,39.92775,32.79882
05.02.2025,"الرئيس السوري: يوجد حوار بيننا وبين ""قسد"" لحل بعض الخلافات، وسيتم تشكيل لجنة تحضيرية لاختيار ممثلين عن الشعب السوري في مؤتمر الحوار الوطني.(التلفزيون العربي)",https://syria.liveuamap.com/ar/2025/4-february-08-syrian-president-there-is-a-dialogue-between,22734560,1 الشهر منذ,33.51821,36.25002
06.02.2025,الطيران التركي ينفذ غارات جوية في محيط سد تشرين وقسد تطلق عملية أوسع في ريف منبج,https://syria.liveuamap.com/ar/2025/7-february-10-turkish-airforce-is-carrying-out-airstrikes,22735366,1 الشهر منذ,36.38404,38.16788
06.02.2025,"مصادر الحدث: ""العمليات العسكرية"" تسيطر على التلال المحيطة بقرية أكّوم الاستراتيجية على الحدود مع لبنان",https://syria.liveuamap.com/ar/2025/7-february-10-military-operations-control-the-hills-surrounding,22735367,1 الشهر منذ,34.51712,36.36827
06.02.2025,متحدث باسم قسد: سكان شمال سوريا قادرون على إدارة أنفسهم,https://syria.liveuamap.com/ar/2025/6-february-20-sdf-spokesman-residents-of-northern-syria-are,22735231,1 الشهر منذ,36.50177,40.74211
06.02.2025,بطل الثورة السورية الذي ساهمت شجاعته ومثابرته في فضح عمليات التعذيب والقتل الوحشية التي يرتكبها نظام الأسد من خلال تسريب آلاف الصور من مواقع الإبادة. فريد المدحان المعروف أيضًا باسم قيصر يكشف عن نفسه,https://syria.liveuamap.com/ar/2025/6-february-19-the-hero-of-the-syrian-revolution-whose-courage,22735212,1 الشهر منذ,33.6651,36.32865
06.02.2025,مراسل نهر_ميديا: نفذت مجموعات من قسد عمليات تسلل متزامنة، أمس على مواقع الجيش الوطني في تلة السيرتيل بريف حلب، وسيطرت على أجزاء منها، وقصفت قرى السعيدين و البلاشة و الكدرو بقذائف الهاون,https://syria.liveuamap.com/ar/2025/6-february-16-sdf-groups-carried-out-simultaneous-infiltration,22735217,1 الشهر منذ,36.39764,38.11604
06.02.2025,الطيران التركي (بيرقدار) يستهدف ميليشيا «قسد» PKK/SDF في سد تشرين بغارة جوية.  Tishreen_Dam Tişrin Tishrin,https://syria.liveuamap.com/ar/2025/6-february-14-turkish-air-force-bayraktar-targets-area-of,22735166,1 الشهر منذ,36.38024,38.18994
06.02.2025,"قصف مدفعي ""للجيش السوري"" يستهدف مواقع ""ميليشيا حزب اللات"" في قضاء",https://syria.liveuamap.com/ar/2025/6-february-14-artillery-shelling-by-the-syrian-military-department,22735156,1 الشهر منذ,34.49797,36.42861
06.02.2025,الطيران التركي يستهدف بعدة غارات جوية نقاط تمركز ميليشيا «قسد» PKK/SDF في قرى كل من (زور مغار - الشيوخ - بيلونه) غربي مدينة عين العرب/كوباني، بالتزامن مع قصف مدفعي مكثف من قِبل الجيش السوري على تلك المناطق,https://syria.liveuamap.com/ar/2025/6-february-14-turkish-aircraft-targeted-sdf-positions-in,22735216,1 الشهر منذ,36.80597,38.04308
06.02.2025,الجيش التركي ينفذ غارات جوية على منطقة صرين جنوب كوباني,https://syria.liveuamap.com/ar/2025/6-february-12-turkish-military-is-carrying-out-airstrikes,22735141,1 الشهر منذ,36.58347,38.30795
06.02.2025,الاتحاد الأوروبي: وجهنا دعوة لوزير خارجية سوريا لزيارة بروكسل قريبا,https://syria.liveuamap.com/ar/2025/6-february-11-eu-we-have-invited-the-syrian-foreign-minister,22735124,1 الشهر منذ,50.83864,4.37557
06.02.2025,إدارة العمليات العسكرية تبسط سيطرتها التامة على قرية حاويك الحدودية بريف القصير الغربي وتواصل عمليات تمشيط الحدود لطرد فلول حزب الله الإرهابي من المنطقة,https://syria.liveuamap.com/ar/2025/6-february-10-the-military-operations-department-extends,22735135,1 الشهر منذ,34.54826,36.42431
06.02.2025,قوات سوريا الديمقراطية تشن عمليات أمنية واسعة في ريف الحسكة الجنوبي تستهدف مسلحي داعش بمشاركة قوات التحالف الدولي بقيادة الولايات المتحدة,https://syria.liveuamap.com/ar/2025/6-february-10-sdf-forces-launched-large-scale-security-operations,22735106,1 الشهر منذ,36.04651,40.73181
06.02.2025,قوات من قيادة الأمن العام تدخل عفرين,https://syria.liveuamap.com/ar/2025/6-february-10-general-security-command-forces-are-entering,22735107,1 الشهر منذ,36.50685,36.86428
06.02.2025,"رئيس فرنسا ""ماكرون"" اتصل بالرئيس السوري ""احمد الشرع"" وهنئه بمناسبة تولية رئيساً للجمهورية العربية السورية",https://syria.liveuamap.com/ar/2025/5-february-19-french-president-macron-called-syrian-president,22734938,1 الشهر منذ,48.86955,2.3164
06.02.2025,قالت هيئة المعابر والحدود السورية إنها وقعت عقدا جديدا مع مجموعة CMA CGM الفرنسية لتشغيل مرفأ اللاذقية، مضيفة أن الشركة ستسدد كافة المستحقات السابقة للطرفين.,https://syria.liveuamap.com/ar/2025/5-february-15-syria-has-signed-a-new-contract-with-french,22734929,1 الشهر منذ,35.50931,35.7653
06.02.2025,البنتاغون يعد خططا لسحب جميع القوات الأميركية من سوريا بعد تصريحات ترامب الأخيرة: إن بي سي,https://syria.liveuamap.com/ar/2025/5-february-10-the-pentagon-is-drafting-plans-to-withdraw,22734883,1 الشهر منذ,38.87229,-77.0563
06.02.2025,طائرات  التركي تقصف قرية زور مغارة في كوباني عرض المزيد (  وكالة أنباء هاوار ANHA    لحظة بلحظة عبر الواتس اب,https://syria.liveuamap.com/ar/2025/5-february-09-turkish-aircraft-bomb-the-village-of-zor-maghara,22734884,1 الشهر منذ,36.83235,38.03741
06.02.2025,مدير منظمة الصحة العالمية: قلقون من العنف المستمر في مدينة منبج السورية,https://syria.liveuamap.com/ar/2025/4-february-22-who-director-we-are-concerned-about-the-ongoing,22734771,1 الشهر منذ,46.22419,6.10066
06.02.2025,أردوغان: تم افتتاح قنصليتنا بشكل رسمي في حلب.,https://syria.liveuamap.com/ar/2025/4-february-18-erdogan-our-consulate-has-been-officially-opened,22734645,1 الشهر منذ,39.93106,32.79813
06.02.2025,الرئيس السوري: بدأنا العمل مع تركيا في ملفات كبرى على رأسها بناء استراتيجية مشتركة لمواجهة التهديدات الأمنية,https://syria.liveuamap.com/ar/2025/4-february-18-ahmed-al-sharaa-we-have-started-working-with,22734644,1 الشهر منذ,39.93014,32.79831
06.02.2025,أصحاب المحلات التجارية في مدينة منبج بريف حلب ينفذون إضرابًا عامًا احتجاجا على التفجيرات الأخيرة التي ضربت المدينة وراح ضحيتها قتلى من المدنيينفيديو,https://syria.liveuamap.com/ar/2025/4-february-18-shop-owners-in-the-city-of-manbij-in-the-countryside,22734643,1 الشهر منذ,36.52631,37.95467
06.02.2025,أردوغان: العقوبات الغربية على سوريا تمثل عقبة أمام نهوض البلاد وسنعمل على دعم الجهود لرفعها,https://syria.liveuamap.com/ar/2025/4-february-19-erdogan-western-sanctions-on-syria-are-an-obstacle,22734640,1 الشهر منذ,39.92914,32.79897
06.02.2025,الشرع: ناقشنا مع الرئيس التركي ضرورة انسحاب إسرائيل من المنطقة العازلة,https://syria.liveuamap.com/ar/2025/4-february-17-alsharaa-we-discussed-with-the-turkish-president,22734641,1 الشهر منذ,39.93021,32.7967
06.02.2025,الشرع: بدأنا العمل على تعزيز العلاقات بين سوريا وتركيا في مختلف المجالات,https://syria.liveuamap.com/ar/2025/4-february-17-alsharaa-we-have-started-working-to-strengthen,22734642,1 الشهر منذ,39.93116,32.79815
06.02.2025,الشرع: الشعب السوري لن ينسى الوقفة التاريخية لدولة تركيا مع شعبنا,https://syria.liveuamap.com/ar/2025/4-february-17-alsharaa-the-syrian-people-will-not-forget,22734648,1 الشهر منذ,39.93037,32.79858
06.02.2025,الرئيس السوري: العلاقة بين سوريا وتركيا ممتدة عبر التاريخ والجغرافيا,https://syria.liveuamap.com/ar/2025/4-february-17-ahmed-al-sharaa-the-relationship-between-syria,22734646,1 الشهر منذ,39.92936,32.79768
06.02.2025,أردوغان: من الضروري أن تقدم البلدان العربية والإسلامية الدعم للإدارة الجديدة في سوريا,https://syria.liveuamap.com/ar/2025/4-february-17-erdogan-it-is-necessary-for-arab-and-islamic,22734652,1 الشهر منذ,39.92944,32.79793
06.02.2025,أردوغان: سنساهم في الجهود الرامية لرفع العقوبات المفروضة على سوريا,https://syria.liveuamap.com/ar/2025/4-february-17-erdogan-we-will-contribute-to-efforts-to-lift,22734649,1 الشهر منذ,39.92762,32.79968
06.02.2025,أردوغان: أكدت للرئيس السوري استعدادنا لتقديم الدعم اللازم في مواجهة التنظيمات بكل أشكالها,https://syria.liveuamap.com/ar/2025/4-february-17-erdogan-i-assured-the-syrian-president-of-our,22734639,1 الشهر منذ,39.93127,32.79768
06.02.2025,أردوغان: نؤكد على احترام سيادة سوريا ووحدة أراضيها,https://syria.liveuamap.com/ar/2025/4-february-17-erdogan-we-stress-respect-for-syrias-sovereignty,22734638,1 الشهر منذ,39.93069,32.79841
07.02.2025,"إدارة الأمن العام تحبط محاولة تهريب أسلحة لـ""قسد"" إلى داخل الأحياء التي تسيطر عليها في مدينة حلب",https://syria.liveuamap.com/ar/2025/8-february-09-the-public-security-department-thwarts-an-attempt,22735653,1 الشهر منذ,36.22793,37.19155
07.02.2025,الرئاسة السورية: الرئيس أحمد الشرع تلقى اتصالا هاتفيا من الرئيس اللبناني جوزيف عون الذي هنأه بتوليه الرئاسة,https://syria.liveuamap.com/ar/2025/7-february-21-syrian-presidency-president-ahmad-alshara-received,22735511,1 الشهر منذ,33.51646,36.25185
07.02.2025,مراسل  محمد هارون: إدارة العمليات العسكرية سيطرت على بلدات عدة وتلال أكوم الاستراتيجية المحاذية للحدود مع لبنان,https://syria.liveuamap.com/ar/2025/7-february-19-correspondent-muhammad-haroun-the-military,22735497,1 الشهر منذ,34.51275,36.3644
07.02.2025,"جبلةمظاهرات غاضبة في مدينة جبلة احتجاجا على قرار الأمن العام بإطلاق سراح شبيحة متهمين بتعذيب معتقلين في أجهزة الأمن التابعة للنظام السابق.بينما المسؤول الأمني في مدينة جبلة يصرح: ""تم الإفراج عنهم لعدم تقديم الأهالي أي شكاوى بحقهم""",https://syria.liveuamap.com/ar/2025/7-february-18-jableh-angry-demonstrations-in-the-city-of,22735506,1 الشهر منذ,35.36019,35.92632
07.02.2025,الرئيس السوري الشرع يتحدث مع المستشارة الألمانية,https://syria.liveuamap.com/ar/2025/7-february-15-syrias-president-alsharaa-spoke-with-the-german,22735440,1 الشهر منذ,33.51767,36.2519
07.02.2025,مظاهرات في دمشق تطالب بمحاكمة فادي صقر قائد سابق في قوات الدفاع الوطني، ومتظاهرون في حي التضامن يرفضون عودته ويطالبون بالمحاسبة,https://syria.liveuamap.com/ar/2025/7-february-15-protests-erupt-in-damascus-as-residents-demand,22735437,1 الشهر منذ,33.48122,36.31398
07.02.2025,تحليق مكثف للطيران الحربي التابع للتحالف الدولي في سماء مدينتي القورية و العشارة شرق ديرالزور.  ديرالزور,https://syria.liveuamap.com/ar/2025/7-february-15-intensive-flights-of-the-international-coalition,22735434,1 الشهر منذ,34.92113,40.55666
07.02.2025,الطيران التركي ينفذ غارات جوية في محيط سد تشرين وقسد تطلق عملية أوسع في ريف منبج,https://syria.liveuamap.com/ar/2025/7-february-10-turkish-airforce-is-carrying-out-airstrikes,22735366,1 الشهر منذ,36.38404,38.16788
07.02.2025,"مصادر الحدث: ""العمليات العسكرية"" تسيطر على التلال المحيطة بقرية أكّوم الاستراتيجية على الحدود مع لبنان",https://syria.liveuamap.com/ar/2025/7-february-10-military-operations-control-the-hills-surrounding,22735367,1 الشهر منذ,34.51712,36.36827
07.02.2025,متحدث باسم قسد: سكان شمال سوريا قادرون على إدارة أنفسهم,https://syria.liveuamap.com/ar/2025/6-february-20-sdf-spokesman-residents-of-northern-syria-are,22735231,1 الشهر منذ,36.50177,40.74211
07.02.2025,بطل الثورة السورية الذي ساهمت شجاعته ومثابرته في فضح عمليات التعذيب والقتل الوحشية التي يرتكبها نظام الأسد من خلال تسريب آلاف الصور من مواقع الإبادة. فريد المدحان المعروف أيضًا باسم قيصر يكشف عن نفسه,https://syria.liveuamap.com/ar/2025/6-february-19-the-hero-of-the-syrian-revolution-whose-courage,22735212,1 الشهر منذ,33.6651,36.32865
07.02.2025,مراسل نهر_ميديا: نفذت مجموعات من قسد عمليات تسلل متزامنة، أمس على مواقع الجيش الوطني في تلة السيرتيل بريف حلب، وسيطرت على أجزاء منها، وقصفت قرى السعيدين و البلاشة و الكدرو بقذائف الهاون,https://syria.liveuamap.com/ar/2025/6-february-16-sdf-groups-carried-out-simultaneous-infiltration,22735217,1 الشهر منذ,36.39764,38.11604
07.02.2025,الطيران التركي (بيرقدار) يستهدف ميليشيا «قسد» PKK/SDF في سد تشرين بغارة جوية.  Tishreen_Dam Tişrin Tishrin,https://syria.liveuamap.com/ar/2025/6-february-14-turkish-air-force-bayraktar-targets-area-of,22735166,1 الشهر منذ,36.38024,38.18994
07.02.2025,"قصف مدفعي ""للجيش السوري"" يستهدف مواقع ""ميليشيا حزب اللات"" في قضاء",https://syria.liveuamap.com/ar/2025/6-february-14-artillery-shelling-by-the-syrian-military-department,22735156,1 الشهر منذ,34.49797,36.42861
07.02.2025,الطيران التركي يستهدف بعدة غارات جوية نقاط تمركز ميليشيا «قسد» PKK/SDF في قرى كل من (زور مغار - الشيوخ - بيلونه) غربي مدينة عين العرب/كوباني، بالتزامن مع قصف مدفعي مكثف من قِبل الجيش السوري على تلك المناطق,https://syria.liveuamap.com/ar/2025/6-february-14-turkish-aircraft-targeted-sdf-positions-in,22735216,1 الشهر منذ,36.80597,38.04308
07.02.2025,الجيش التركي ينفذ غارات جوية على منطقة صرين جنوب كوباني,https://syria.liveuamap.com/ar/2025/6-february-12-turkish-military-is-carrying-out-airstrikes,22735141,1 الشهر منذ,36.58347,38.30795
07.02.2025,الاتحاد الأوروبي: وجهنا دعوة لوزير خارجية سوريا لزيارة بروكسل قريبا,https://syria.liveuamap.com/ar/2025/6-february-11-eu-we-have-invited-the-syrian-foreign-minister,22735124,1 الشهر منذ,50.83864,4.37557
07.02.2025,إدارة العمليات العسكرية تبسط سيطرتها التامة على قرية حاويك الحدودية بريف القصير الغربي وتواصل عمليات تمشيط الحدود لطرد فلول حزب الله الإرهابي من المنطقة,https://syria.liveuamap.com/ar/2025/6-february-10-the-military-operations-department-extends,22735135,1 الشهر منذ,34.54826,36.42431
07.02.2025,قوات سوريا الديمقراطية تشن عمليات أمنية واسعة في ريف الحسكة الجنوبي تستهدف مسلحي داعش بمشاركة قوات التحالف الدولي بقيادة الولايات المتحدة,https://syria.liveuamap.com/ar/2025/6-february-10-sdf-forces-launched-large-scale-security-operations,22735106,1 الشهر منذ,36.04651,40.73181
07.02.2025,قوات من قيادة الأمن العام تدخل عفرين,https://syria.liveuamap.com/ar/2025/6-february-10-general-security-command-forces-are-entering,22735107,1 الشهر منذ,36.50685,36.86428
07.02.2025,"رئيس فرنسا ""ماكرون"" اتصل بالرئيس السوري ""احمد الشرع"" وهنئه بمناسبة تولية رئيساً للجمهورية العربية السورية",https://syria.liveuamap.com/ar/2025/5-february-19-french-president-macron-called-syrian-president,22734938,1 الشهر منذ,48.86955,2.3164
07.02.2025,قالت هيئة المعابر والحدود السورية إنها وقعت عقدا جديدا مع مجموعة CMA CGM الفرنسية لتشغيل مرفأ اللاذقية، مضيفة أن الشركة ستسدد كافة المستحقات السابقة للطرفين.,https://syria.liveuamap.com/ar/2025/5-february-15-syria-has-signed-a-new-contract-with-french,22734929,1 الشهر منذ,35.50931,35.7653
07.02.2025,البنتاغون يعد خططا لسحب جميع القوات الأميركية من سوريا بعد تصريحات ترامب الأخيرة: إن بي سي,https://syria.liveuamap.com/ar/2025/5-february-10-the-pentagon-is-drafting-plans-to-withdraw,22734883,1 الشهر منذ,38.87229,-77.0563
07.02.2025,طائرات  التركي تقصف قرية زور مغارة في كوباني عرض المزيد (  وكالة أنباء هاوار ANHA    لحظة بلحظة عبر الواتس اب,https://syria.liveuamap.com/ar/2025/5-february-09-turkish-aircraft-bomb-the-village-of-zor-maghara,22734884,1 الشهر منذ,36.83235,38.03741
07.02.2025,مدير منظمة الصحة العالمية: قلقون من العنف المستمر في مدينة منبج السورية,https://syria.liveuamap.com/ar/2025/4-february-22-who-director-we-are-concerned-about-the-ongoing,22734771,1 الشهر منذ,46.22419,6.10066
07.02.2025,أردوغان: تم افتتاح قنصليتنا بشكل رسمي في حلب.,https://syria.liveuamap.com/ar/2025/4-february-18-erdogan-our-consulate-has-been-officially-opened,22734645,1 الشهر منذ,39.93106,32.79813
07.02.2025,الرئيس السوري: بدأنا العمل مع تركيا في ملفات كبرى على رأسها بناء استراتيجية مشتركة لمواجهة التهديدات الأمنية,https://syria.liveuamap.com/ar/2025/4-february-18-ahmed-al-sharaa-we-have-started-working-with,22734644,1 الشهر منذ,39.93014,32.79831
07.02.2025,أصحاب المحلات التجارية في مدينة منبج بريف حلب ينفذون إضرابًا عامًا احتجاجا على التفجيرات الأخيرة التي ضربت المدينة وراح ضحيتها قتلى من المدنيينفيديو,https://syria.liveuamap.com/ar/2025/4-february-18-shop-owners-in-the-city-of-manbij-in-the-countryside,22734643,1 الشهر منذ,36.52631,37.95467
07.02.2025,أردوغان: العقوبات الغربية على سوريا تمثل عقبة أمام نهوض البلاد وسنعمل على دعم الجهود لرفعها,https://syria.liveuamap.com/ar/2025/4-february-19-erdogan-western-sanctions-on-syria-are-an-obstacle,22734640,1 الشهر منذ,39.92914,32.79897
07.02.2025,الشرع: ناقشنا مع الرئيس التركي ضرورة انسحاب إسرائيل من المنطقة العازلة,https://syria.liveuamap.com/ar/2025/4-february-17-alsharaa-we-discussed-with-the-turkish-president,22734641,1 الشهر منذ,39.93021,32.7967
08.02.2025,"Raqqa الرقة: استشهاد المدني ""محمد أحمد المراد"" نتيجة القصف الجوي التركي قبل قليل على قرية (الخاتونية) شمال شرق بلدة الجرنية بريف الرقة الغربي.Raqqa الرقة: الطيران التركي يستهدف قرية الخاتونية شمال مفرق (الكــلي) بغارة جوية وإصابات في صفوف المدنيين عرف من المصابين (محمد المراد)",https://syria.liveuamap.com/ar/2025/8-february-20-raqqa-the-civilian-mohammed-ahmed-almurad-was,22735757,1 الشهر منذ,36.19107,38.28152
08.02.2025,nالجـ ـيش السوري يستهدف بقـ ـذائف المدفـ ـعية الثقيلة مواقع قسد في صوامع قرية أم_الكيف وقرية الكوزلية في ريف تل_تمر شمال الحسكة,https://syria.liveuamap.com/ar/2025/8-february-19-turkishbacked-factions-target-with-heavy-artillery,22735745,1 الشهر منذ,36.62391,40.22369
08.02.2025,وصل وزير الشؤون الخارجية الجزائرية أحمد_عطاف إلى العاصمة السورية دمشق في زيارة رسمية,https://syria.liveuamap.com/ar/2025/8-february-18-algerian-foreign-minister-ahmed-attaf-arrived,22735758,1 الشهر منذ,33.51461,36.25282
08.02.2025,"ردًا على سؤال حول الانسحاب من سوريا، قال وزير الدفاع إن مثل هذه القرارات يتخذها الرئيس، مع وضع جميع مصالحنا الاستراتيجية في الاعتبار. ""ما نقوم به هنا في البنتاغون هو التخطيط. لذلك نحن نخطط لكل طارئ محتمل مهما كان"".",https://syria.liveuamap.com/ar/2025/8-february-17-responding-to-a-question-about-withdrawal-from,22735775,1 الشهر منذ,38.87011,-77.05287
08.02.2025,غارة لطيران  الإسرائيلي تستهدف اللواء 15 على أطرف مدينة إنخل بريف درعا الشمالي مع استمرار تحليق الطيران المسير في المنطقة,https://syria.liveuamap.com/ar/2025/8-february-16-an-israeli-air-raid-targets-the-15th-brigade,22735774,1 الشهر منذ,33.02817,36.14845
08.02.2025,سوريا: تم العثور على سيارة مفخخة في مدينة الباب (شمال شرق حلب)، كانت مركونة في سوق الهال، وكان من الممكن أن تؤدي إلى وقوع عدد كبير من الضحايا، وتم تفجيرها بأمان من قبل فريق هندسي.,https://syria.liveuamap.com/ar/2025/8-february-15-syria-a-car-bomb-was-discovered-in-town-of,22735691,1 الشهر منذ,36.36944,37.51436
08.02.2025,تحديث  وسائل إعلام لبنانية: 6 شهداء وجريحان في غارة من مسيّرة إسرائيلية على تخوم بلدة جنتا على سفوح سلسلة جبال لبنان الشرقية,https://israelpalestine.liveuamap.com/ar/2025/8-february-15-6-dead-and-2-wounded-in-an-israeli-drone-strike,22735694,1 الشهر منذ,33.85892,36.14639
08.02.2025,بناءً على توجيهات رئيس الجمهورية العماد جوزاف عون، أصدرت قيادة الجيش الأوامر للوحدات العسكرية المنتشرة على الحدود الشمالية والشرقية بالرد على مصادر النيران التي تُطلَق من الأراضي السورية وتستهدف الأراضي اللبنانية. وقد باشرت هذه الوحدات بالرد بالأسلحة المناسبة، وذلك على خلفية الاشتباكات الأخيرة التي تعرضت خلالها عدة مناطق لبنانية للقصف وإطلاق النار,https://syria.liveuamap.com/ar/2025/8-february-15-lebanese-army-based-on-the-directives-of-president,22735742,1 الشهر منذ,34.39631,36.53071
08.02.2025,"قال الجيش الإسرائيلي إن طائرات مقاتلة إسرائيلية قصفت مستودع أسلحة لحماس بالقرب من بلدة دير علي السورية جنوب دمشق قبل قليل. ووفقا للجيش فإن الأسلحة المخزنة في الموقع كانت ستستخدم في هجمات على القوات. ويقول الجيش الإسرائيلي إن ""المنظمات الفلسطينية وعلى رأسها حماس تستغل سوريا لإقامة نشاط إرهابي بتوجيه من إيران""، مضيفا أنه سيعمل ضد حماس في أي مكان تحاول فيه ترسيخ وجودها.",https://syria.liveuamap.com/ar/2025/8-february-13-israeli-fighter-jets-struck-a-hamas-weapon,22735689,1 الشهر منذ,33.28895,36.29694
08.02.2025,الجيش الإسرائيلي: استهدفنا مستودع أسلحة تابع لحركة حماس في منطقة دير علي جنوبي سوريا,https://syria.liveuamap.com/ar/2025/8-february-13-israeli-army-we-targeted-a-hamas-weapons-depot,22735678,1 الشهر منذ,32.07407,34.78779
08.02.2025,مصادر سورية: غارة لطيران العدو الإسرائيلي على تل المانع في منطقة الكسوة بريف دمشق,https://syria.liveuamap.com/ar/2025/8-february-13-israeli-aircraft-raid-on-tal-almanea-in-the,22735668,1 الشهر منذ,33.36621,36.24304
08.02.2025,"مراسل ""النهار"": سقوط 3 ضحايا وجريح اثر غارة من مسيرة إسرائيلية استهدفت معبرا غير شرعي في منطقة الشعرة في جرود بلدة النبي شيت قضاء بعلبك",https://israelpalestine.liveuamap.com/ar/2025/8-february-13-three-victims-and-one-wounded-as-a-result-of,22735672,1 الشهر منذ,33.84016,36.13163
08.02.2025,سوريا: بعد توقف دام خمسة أسابيع، نفذت إسرائيل غارات جوية استهدفت قاعدة سابقة للجيش العربي السوري بالقرب من الكسوة (جنوب دمشق).,https://syria.liveuamap.com/ar/2025/8-february-13-syria-after-a-pause-of-5-weeks-israel-just,22735679,1 الشهر منذ,33.34407,36.30642
08.02.2025,سوريا-لبنان: إسقاط طائرة مسيرة من نوع شاهين، على ما يبدو نموذج انتحاري، من قبل مقاتلين تابعين لحزب الله (القوات تهريب),https://syria.liveuamap.com/ar/2025/8-february-11-syrialebanon-a-shaheen-drone-apparently-a-suicide,22735669,1 الشهر منذ,34.48897,36.37024
08.02.2025,"إدارة الأمن العام تحبط محاولة تهريب أسلحة لـ""قسد"" إلى داخل الأحياء التي تسيطر عليها في مدينة حلب",https://syria.liveuamap.com/ar/2025/8-february-09-the-public-security-department-thwarts-an-attempt,22735653,1 الشهر منذ,36.22793,37.19155
08.02.2025,الرئاسة السورية: الرئيس أحمد الشرع تلقى اتصالا هاتفيا من الرئيس اللبناني جوزيف عون الذي هنأه بتوليه الرئاسة,https://syria.liveuamap.com/ar/2025/7-february-21-syrian-presidency-president-ahmad-alshara-received,22735511,1 الشهر منذ,33.51646,36.25185
08.02.2025,مراسل  محمد هارون: إدارة العمليات العسكرية سيطرت على بلدات عدة وتلال أكوم الاستراتيجية المحاذية للحدود مع لبنان,https://syria.liveuamap.com/ar/2025/7-february-19-correspondent-muhammad-haroun-the-military,22735497,1 الشهر منذ,34.51275,36.3644
08.02.2025,"جبلةمظاهرات غاضبة في مدينة جبلة احتجاجا على قرار الأمن العام بإطلاق سراح شبيحة متهمين بتعذيب معتقلين في أجهزة الأمن التابعة للنظام السابق.بينما المسؤول الأمني في مدينة جبلة يصرح: ""تم الإفراج عنهم لعدم تقديم الأهالي أي شكاوى بحقهم""",https://syria.liveuamap.com/ar/2025/7-february-18-jableh-angry-demonstrations-in-the-city-of,22735506,1 الشهر منذ,35.36019,35.92632
08.02.2025,الرئيس السوري الشرع يتحدث مع المستشارة الألمانية,https://syria.liveuamap.com/ar/2025/7-february-15-syrias-president-alsharaa-spoke-with-the-german,22735440,1 الشهر منذ,33.51767,36.2519
08.02.2025,مظاهرات في دمشق تطالب بمحاكمة فادي صقر قائد سابق في قوات الدفاع الوطني، ومتظاهرون في حي التضامن يرفضون عودته ويطالبون بالمحاسبة,https://syria.liveuamap.com/ar/2025/7-february-15-protests-erupt-in-damascus-as-residents-demand,22735437,1 الشهر منذ,33.48122,36.31398
08.02.2025,تحليق مكثف للطيران الحربي التابع للتحالف الدولي في سماء مدينتي القورية و العشارة شرق ديرالزور.  ديرالزور,https://syria.liveuamap.com/ar/2025/7-february-15-intensive-flights-of-the-international-coalition,22735434,1 الشهر منذ,34.92113,40.55666
08.02.2025,الطيران التركي ينفذ غارات جوية في محيط سد تشرين وقسد تطلق عملية أوسع في ريف منبج,https://syria.liveuamap.com/ar/2025/7-february-10-turkish-airforce-is-carrying-out-airstrikes,22735366,1 الشهر منذ,36.38404,38.16788
08.02.2025,"مصادر الحدث: ""العمليات العسكرية"" تسيطر على التلال المحيطة بقرية أكّوم الاستراتيجية على الحدود مع لبنان",https://syria.liveuamap.com/ar/2025/7-february-10-military-operations-control-the-hills-surrounding,22735367,1 الشهر منذ,34.51712,36.36827
08.02.2025,متحدث باسم قسد: سكان شمال سوريا قادرون على إدارة أنفسهم,https://syria.liveuamap.com/ar/2025/6-february-20-sdf-spokesman-residents-of-northern-syria-are,22735231,1 الشهر منذ,36.50177,40.74211
08.02.2025,بطل الثورة السورية الذي ساهمت شجاعته ومثابرته في فضح عمليات التعذيب والقتل الوحشية التي يرتكبها نظام الأسد من خلال تسريب آلاف الصور من مواقع الإبادة. فريد المدحان المعروف أيضًا باسم قيصر يكشف عن نفسه,https://syria.liveuamap.com/ar/2025/6-february-19-the-hero-of-the-syrian-revolution-whose-courage,22735212,1 الشهر منذ,33.6651,36.32865
08.02.2025,مراسل نهر_ميديا: نفذت مجموعات من قسد عمليات تسلل متزامنة، أمس على مواقع الجيش الوطني في تلة السيرتيل بريف حلب، وسيطرت على أجزاء منها، وقصفت قرى السعيدين و البلاشة و الكدرو بقذائف الهاون,https://syria.liveuamap.com/ar/2025/6-february-16-sdf-groups-carried-out-simultaneous-infiltration,22735217,1 الشهر منذ,36.39764,38.11604
08.02.2025,الطيران التركي (بيرقدار) يستهدف ميليشيا «قسد» PKK/SDF في سد تشرين بغارة جوية.  Tishreen_Dam Tişrin Tishrin,https://syria.liveuamap.com/ar/2025/6-february-14-turkish-air-force-bayraktar-targets-area-of,22735166,1 الشهر منذ,36.38024,38.18994
08.02.2025,"قصف مدفعي ""للجيش السوري"" يستهدف مواقع ""ميليشيا حزب اللات"" في قضاء",https://syria.liveuamap.com/ar/2025/6-february-14-artillery-shelling-by-the-syrian-military-department,22735156,1 الشهر منذ,34.49797,36.42861
08.02.2025,الطيران التركي يستهدف بعدة غارات جوية نقاط تمركز ميليشيا «قسد» PKK/SDF في قرى كل من (زور مغار - الشيوخ - بيلونه) غربي مدينة عين العرب/كوباني، بالتزامن مع قصف مدفعي مكثف من قِبل الجيش السوري على تلك المناطق,https://syria.liveuamap.com/ar/2025/6-february-14-turkish-aircraft-targeted-sdf-positions-in,22735216,1 الشهر منذ,36.80597,38.04308
08.02.2025,الجيش التركي ينفذ غارات جوية على منطقة صرين جنوب كوباني,https://syria.liveuamap.com/ar/2025/6-february-12-turkish-military-is-carrying-out-airstrikes,22735141,1 الشهر منذ,36.58347,38.30795
09.02.2025,أفاد مراسل درعا 24 نقلاً عن مصدر محلي، بوجود تحركات لقوات  الإسرائيلي المتمركزة على تل الأحمر الغربي في ريف محافظة القنيطرة. حيث شوهدت آليات وجرافات تنزل من التل، ويُرجح أن وجهتها هي قرية أبو غارة في المنطقة. أضاف المراسل أن الطيران الحربي الإسرائيلي يحلق بكثافة في…,https://syria.liveuamap.com/ar/2025/10-february-10-daraa-24-correspondent-reported-quoting-a,22736143,1 الشهر منذ,32.95694,35.93302
09.02.2025,وكالة الأنباء اللبنانية: الجيش اللبناني يستكمل اليوم انتشاره في المنطقة الحدودية الشمالية لمدينة الهرمل مع سوريا بعد انسحاب مقاتلي العشائر اللبنانيين,https://syria.liveuamap.com/ar/2025/10-february-10-lebanese-news-agency-the-lebanese-army-today,22736128,1 الشهر منذ,34.42133,36.53315
09.02.2025,الأمن العام يبدأ حملة أمنية تستهدف تجار السلاح والمخدرات في قرى دير قانون وكفير الزيت بريف دمشق,https://syria.liveuamap.com/ar/2025/10-february-10-public-security-launches-a-security-campaign,22736126,1 الشهر منذ,33.60386,36.13609
09.02.2025,"أعلن الجيش الإسرائيلي الأحد أن إسرائيل نفذت ""ضربة استخباراتية دقيقة على نفق تحت الأرض يمتد من الأراضي السورية إلى الأراضي اللبنانية كان يستخدمه حزب الله لتهريب الأسلحة في منطقة البقاع وتعرض للقصف في الماضي"".",https://israelpalestine.liveuamap.com/ar/2025/9-february-20-israel-conducted-a-precise-intelligencebased,22736011,1 الشهر منذ,32.07487,34.78752
09.02.2025,وكالة الأنباء اللبنانية: الجيش يرسل تعزيزات عسكرية إلى منطقة مشاريع القاع بعد تعرضها لاطلاق نار من الجانب السوري,https://syria.liveuamap.com/ar/2025/9-february-15-lebanese-news-agency-the-army-sends-military,22736008,1 الشهر منذ,34.40731,36.54413
09.02.2025,الجيش اللبناني: نفذنا تدابير أمنية على الحدود مع سوريا,https://syria.liveuamap.com/ar/2025/9-february-15-lebanese-army-we-have-implemented-security,22735942,1 الشهر منذ,33.89382,35.50356
09.02.2025,"معلومات ""النهار"": عودة الهدوء إلى الحدود اللبنانية السورية بعد استعادة الجيش اللبناني زمام الأمور وإحكام سيطرته على الوضع",https://syria.liveuamap.com/ar/2025/9-february-15-calm-returns-to-the-lebanesesyrian-border-after,22735938,1 الشهر منذ,34.48547,36.35445
09.02.2025,القناة 12 الإسرائيلية عن مصادر: الجيش لا يعرف إلى متى سيبقى سيطرته على أراض سورية,https://syria.liveuamap.com/ar/2025/9-february-14-channel-12-israel-citing-sources-the-army-does,22735928,1 الشهر منذ,33.12601,35.83603
09.02.2025,غارات لطيران  الإسرائيلي تستهدف مطار خلخلة العسكري بالسويداء,https://syria.liveuamap.com/ar/2025/9-february-13-israeli-air-strikes-target-khalkhala-military,22735906,1 الشهر منذ,33.07627,36.5443
09.02.2025,"مراسل نهر_ميديا: نفذت قسد حملة مداهمات في قرية التوامية التابعة لمدينة البصيرة شرقي ديرالزور، صباح اليوم، استهدفت منازل عناصر منشقين عنها واعتقلت عدداً منهم عرف منهم ""بشار السليم""",https://syria.liveuamap.com/ar/2025/9-february-13-the-sdf-carried-out-a-raid-campaign-in-the,22735918,1 الشهر منذ,35.1516,40.4278
09.02.2025,تستمر الاشتباكات في غابات أكوم وجرمش على الحدود بين سوريا ولبنان بين الجيش السوري وحزب الله,https://syria.liveuamap.com/ar/2025/9-february-12-clashes-continue-at-the-forests-of-akum-and,22735893,1 الشهر منذ,34.50751,36.34003
09.02.2025,"Raqqa الرقة: استشهاد المدني ""محمد أحمد المراد"" نتيجة القصف الجوي التركي قبل قليل على قرية (الخاتونية) شمال شرق بلدة الجرنية بريف الرقة الغربي.Raqqa الرقة: الطيران التركي يستهدف قرية الخاتونية شمال مفرق (الكــلي) بغارة جوية وإصابات في صفوف المدنيين عرف من المصابين (محمد المراد)",https://syria.liveuamap.com/ar/2025/8-february-20-raqqa-the-civilian-mohammed-ahmed-almurad-was,22735757,1 الشهر منذ,36.19107,38.28152
09.02.2025,nالجـ ـيش السوري يستهدف بقـ ـذائف المدفـ ـعية الثقيلة مواقع قسد في صوامع قرية أم_الكيف وقرية الكوزلية في ريف تل_تمر شمال الحسكة,https://syria.liveuamap.com/ar/2025/8-february-19-turkishbacked-factions-target-with-heavy-artillery,22735745,1 الشهر منذ,36.62391,40.22369
09.02.2025,وصل وزير الشؤون الخارجية الجزائرية أحمد_عطاف إلى العاصمة السورية دمشق في زيارة رسمية,https://syria.liveuamap.com/ar/2025/8-february-18-algerian-foreign-minister-ahmed-attaf-arrived,22735758,1 الشهر منذ,33.51461,36.25282
09.02.2025,"ردًا على سؤال حول الانسحاب من سوريا، قال وزير الدفاع إن مثل هذه القرارات يتخذها الرئيس، مع وضع جميع مصالحنا الاستراتيجية في الاعتبار. ""ما نقوم به هنا في البنتاغون هو التخطيط. لذلك نحن نخطط لكل طارئ محتمل مهما كان"".",https://syria.liveuamap.com/ar/2025/8-february-17-responding-to-a-question-about-withdrawal-from,22735775,1 الشهر منذ,38.87011,-77.05287
09.02.2025,غارة لطيران  الإسرائيلي تستهدف اللواء 15 على أطرف مدينة إنخل بريف درعا الشمالي مع استمرار تحليق الطيران المسير في المنطقة,https://syria.liveuamap.com/ar/2025/8-february-16-an-israeli-air-raid-targets-the-15th-brigade,22735774,1 الشهر منذ,33.02817,36.14845
09.02.2025,سوريا: تم العثور على سيارة مفخخة في مدينة الباب (شمال شرق حلب)، كانت مركونة في سوق الهال، وكان من الممكن أن تؤدي إلى وقوع عدد كبير من الضحايا، وتم تفجيرها بأمان من قبل فريق هندسي.,https://syria.liveuamap.com/ar/2025/8-february-15-syria-a-car-bomb-was-discovered-in-town-of,22735691,1 الشهر منذ,36.36944,37.51436
09.02.2025,تحديث  وسائل إعلام لبنانية: 6 شهداء وجريحان في غارة من مسيّرة إسرائيلية على تخوم بلدة جنتا على سفوح سلسلة جبال لبنان الشرقية,https://israelpalestine.liveuamap.com/ar/2025/8-february-15-6-dead-and-2-wounded-in-an-israeli-drone-strike,22735694,1 الشهر منذ,33.85892,36.14639
09.02.2025,بناءً على توجيهات رئيس الجمهورية العماد جوزاف عون، أصدرت قيادة الجيش الأوامر للوحدات العسكرية المنتشرة على الحدود الشمالية والشرقية بالرد على مصادر النيران التي تُطلَق من الأراضي السورية وتستهدف الأراضي اللبنانية. وقد باشرت هذه الوحدات بالرد بالأسلحة المناسبة، وذلك على خلفية الاشتباكات الأخيرة التي تعرضت خلالها عدة مناطق لبنانية للقصف وإطلاق النار,https://syria.liveuamap.com/ar/2025/8-february-15-lebanese-army-based-on-the-directives-of-president,22735742,1 الشهر منذ,34.39631,36.53071
09.02.2025,"قال الجيش الإسرائيلي إن طائرات مقاتلة إسرائيلية قصفت مستودع أسلحة لحماس بالقرب من بلدة دير علي السورية جنوب دمشق قبل قليل. ووفقا للجيش فإن الأسلحة المخزنة في الموقع كانت ستستخدم في هجمات على القوات. ويقول الجيش الإسرائيلي إن ""المنظمات الفلسطينية وعلى رأسها حماس تستغل سوريا لإقامة نشاط إرهابي بتوجيه من إيران""، مضيفا أنه سيعمل ضد حماس في أي مكان تحاول فيه ترسيخ وجودها.",https://syria.liveuamap.com/ar/2025/8-february-13-israeli-fighter-jets-struck-a-hamas-weapon,22735689,1 الشهر منذ,33.28895,36.29694
09.02.2025,الجيش الإسرائيلي: استهدفنا مستودع أسلحة تابع لحركة حماس في منطقة دير علي جنوبي سوريا,https://syria.liveuamap.com/ar/2025/8-february-13-israeli-army-we-targeted-a-hamas-weapons-depot,22735678,1 الشهر منذ,32.07407,34.78779
09.02.2025,مصادر سورية: غارة لطيران العدو الإسرائيلي على تل المانع في منطقة الكسوة بريف دمشق,https://syria.liveuamap.com/ar/2025/8-february-13-israeli-aircraft-raid-on-tal-almanea-in-the,22735668,1 الشهر منذ,33.36621,36.24304
09.02.2025,"مراسل ""النهار"": سقوط 3 ضحايا وجريح اثر غارة من مسيرة إسرائيلية استهدفت معبرا غير شرعي في منطقة الشعرة في جرود بلدة النبي شيت قضاء بعلبك",https://israelpalestine.liveuamap.com/ar/2025/8-february-13-three-victims-and-one-wounded-as-a-result-of,22735672,1 الشهر منذ,33.84016,36.13163
09.02.2025,سوريا: بعد توقف دام خمسة أسابيع، نفذت إسرائيل غارات جوية استهدفت قاعدة سابقة للجيش العربي السوري بالقرب من الكسوة (جنوب دمشق).,https://syria.liveuamap.com/ar/2025/8-february-13-syria-after-a-pause-of-5-weeks-israel-just,22735679,1 الشهر منذ,33.34407,36.30642
09.02.2025,سوريا-لبنان: إسقاط طائرة مسيرة من نوع شاهين، على ما يبدو نموذج انتحاري، من قبل مقاتلين تابعين لحزب الله (القوات تهريب),https://syria.liveuamap.com/ar/2025/8-february-11-syrialebanon-a-shaheen-drone-apparently-a-suicide,22735669,1 الشهر منذ,34.48897,36.37024
09.02.2025,"إدارة الأمن العام تحبط محاولة تهريب أسلحة لـ""قسد"" إلى داخل الأحياء التي تسيطر عليها في مدينة حلب",https://syria.liveuamap.com/ar/2025/8-february-09-the-public-security-department-thwarts-an-attempt,22735653,1 الشهر منذ,36.22793,37.19155
09.02.2025,الرئاسة السورية: الرئيس أحمد الشرع تلقى اتصالا هاتفيا من الرئيس اللبناني جوزيف عون الذي هنأه بتوليه الرئاسة,https://syria.liveuamap.com/ar/2025/7-february-21-syrian-presidency-president-ahmad-alshara-received,22735511,1 الشهر منذ,33.51646,36.25185
09.02.2025,مراسل  محمد هارون: إدارة العمليات العسكرية سيطرت على بلدات عدة وتلال أكوم الاستراتيجية المحاذية للحدود مع لبنان,https://syria.liveuamap.com/ar/2025/7-february-19-correspondent-muhammad-haroun-the-military,22735497,1 الشهر منذ,34.51275,36.3644
09.02.2025,"جبلةمظاهرات غاضبة في مدينة جبلة احتجاجا على قرار الأمن العام بإطلاق سراح شبيحة متهمين بتعذيب معتقلين في أجهزة الأمن التابعة للنظام السابق.بينما المسؤول الأمني في مدينة جبلة يصرح: ""تم الإفراج عنهم لعدم تقديم الأهالي أي شكاوى بحقهم""",https://syria.liveuamap.com/ar/2025/7-february-18-jableh-angry-demonstrations-in-the-city-of,22735506,1 الشهر منذ,35.36019,35.92632
09.02.2025,الرئيس السوري الشرع يتحدث مع المستشارة الألمانية,https://syria.liveuamap.com/ar/2025/7-february-15-syrias-president-alsharaa-spoke-with-the-german,22735440,1 الشهر منذ,33.51767,36.2519
10.02.2025,إذاعة الجيش الإسرائيلي: الوجود الإسرائيلي في سوريا لم يعد مؤقتا ويتم بناء 9 مواقع عسكرية بالمنطقة الأمنية,https://syria.liveuamap.com/ar/2025/11-february-10-israeli-army-radio-israeli-presence-in-syria,22736442,4 الأسبوع منذ,32.07611,34.78786
10.02.2025,طائرات حربية التركي تشن غارات جوية على جنوب كوبانيعرض المزيد,https://syria.liveuamap.com/ar/2025/10-february-20-turkish-warplanes-launch-airstrikes-on-southern,22736245,4 الأسبوع منذ,36.73711,38.27528
10.02.2025,طائرات بدون طيار تابعة للقوات المسلحة التركية تقصف أهدافاً لقوات سوريا الديمقراطية في محيط سد تشرين وجسر قره كوزاك شرقي منبج، ووقعت انفجارات متتالية في المنطقة,https://syria.liveuamap.com/ar/2025/10-february-19-turkish-armed-forces-uavs-are-hitting-sdf,22736209,4 الأسبوع منذ,36.37465,38.14591
10.02.2025,طائرات بدون طيار تابعة للقوات المسلحة التركية تقصف أهدافاً لقوات سوريا الديمقراطية في قرية بوكاك جنوب كوباني,https://syria.liveuamap.com/ar/2025/10-february-15-turkish-armed-forces-uavs-hit-sdf-targets,22736192,1 الشهر منذ,36.7581,38.28614
10.02.2025,إدارة أمن الحدود السورية تعلن سيطرتها الكاملة على الحدود السورية اللبنانية بعد اشتباكات مع عصـ.ـابات لتهريب الأسـ.ـلحة والمـ.ـخدرات,https://syria.liveuamap.com/ar/2025/10-february-11-the-syrian-border-security-administration,22736144,1 الشهر منذ,34.50484,36.3644
10.02.2025,أفاد مراسل درعا 24 نقلاً عن مصدر محلي، بوجود تحركات لقوات  الإسرائيلي المتمركزة على تل الأحمر الغربي في ريف محافظة القنيطرة. حيث شوهدت آليات وجرافات تنزل من التل، ويُرجح أن وجهتها هي قرية أبو غارة في المنطقة. أضاف المراسل أن الطيران الحربي الإسرائيلي يحلق بكثافة في…,https://syria.liveuamap.com/ar/2025/10-february-10-daraa-24-correspondent-reported-quoting-a,22736143,1 الشهر منذ,32.95694,35.93302
10.02.2025,وكالة الأنباء اللبنانية: الجيش اللبناني يستكمل اليوم انتشاره في المنطقة الحدودية الشمالية لمدينة الهرمل مع سوريا بعد انسحاب مقاتلي العشائر اللبنانيين,https://syria.liveuamap.com/ar/2025/10-february-10-lebanese-news-agency-the-lebanese-army-today,22736128,1 الشهر منذ,34.42133,36.53315
10.02.2025,الأمن العام يبدأ حملة أمنية تستهدف تجار السلاح والمخدرات في قرى دير قانون وكفير الزيت بريف دمشق,https://syria.liveuamap.com/ar/2025/10-february-10-public-security-launches-a-security-campaign,22736126,1 الشهر منذ,33.60386,36.13609
10.02.2025,"أعلن الجيش الإسرائيلي الأحد أن إسرائيل نفذت ""ضربة استخباراتية دقيقة على نفق تحت الأرض يمتد من الأراضي السورية إلى الأراضي اللبنانية كان يستخدمه حزب الله لتهريب الأسلحة في منطقة البقاع وتعرض للقصف في الماضي"".",https://israelpalestine.liveuamap.com/ar/2025/9-february-20-israel-conducted-a-precise-intelligencebased,22736011,1 الشهر منذ,32.07487,34.78752
10.02.2025,وكالة الأنباء اللبنانية: الجيش يرسل تعزيزات عسكرية إلى منطقة مشاريع القاع بعد تعرضها لاطلاق نار من الجانب السوري,https://syria.liveuamap.com/ar/2025/9-february-15-lebanese-news-agency-the-army-sends-military,22736008,1 الشهر منذ,34.40731,36.54413
10.02.2025,الجيش اللبناني: نفذنا تدابير أمنية على الحدود مع سوريا,https://syria.liveuamap.com/ar/2025/9-february-15-lebanese-army-we-have-implemented-security,22735942,1 الشهر منذ,33.89382,35.50356
10.02.2025,"معلومات ""النهار"": عودة الهدوء إلى الحدود اللبنانية السورية بعد استعادة الجيش اللبناني زمام الأمور وإحكام سيطرته على الوضع",https://syria.liveuamap.com/ar/2025/9-february-15-calm-returns-to-the-lebanesesyrian-border-after,22735938,1 الشهر منذ,34.48547,36.35445
10.02.2025,القناة 12 الإسرائيلية عن مصادر: الجيش لا يعرف إلى متى سيبقى سيطرته على أراض سورية,https://syria.liveuamap.com/ar/2025/9-february-14-channel-12-israel-citing-sources-the-army-does,22735928,1 الشهر منذ,33.12601,35.83603
10.02.2025,غارات لطيران  الإسرائيلي تستهدف مطار خلخلة العسكري بالسويداء,https://syria.liveuamap.com/ar/2025/9-february-13-israeli-air-strikes-target-khalkhala-military,22735906,1 الشهر منذ,33.07627,36.5443
10.02.2025,"مراسل نهر_ميديا: نفذت قسد حملة مداهمات في قرية التوامية التابعة لمدينة البصيرة شرقي ديرالزور، صباح اليوم، استهدفت منازل عناصر منشقين عنها واعتقلت عدداً منهم عرف منهم ""بشار السليم""",https://syria.liveuamap.com/ar/2025/9-february-13-the-sdf-carried-out-a-raid-campaign-in-the,22735918,1 الشهر منذ,35.1516,40.4278
10.02.2025,تستمر الاشتباكات في غابات أكوم وجرمش على الحدود بين سوريا ولبنان بين الجيش السوري وحزب الله,https://syria.liveuamap.com/ar/2025/9-february-12-clashes-continue-at-the-forests-of-akum-and,22735893,1 الشهر منذ,34.50751,36.34003
10.02.2025,"Raqqa الرقة: استشهاد المدني ""محمد أحمد المراد"" نتيجة القصف الجوي التركي قبل قليل على قرية (الخاتونية) شمال شرق بلدة الجرنية بريف الرقة الغربي.Raqqa الرقة: الطيران التركي يستهدف قرية الخاتونية شمال مفرق (الكــلي) بغارة جوية وإصابات في صفوف المدنيين عرف من المصابين (محمد المراد)",https://syria.liveuamap.com/ar/2025/8-february-20-raqqa-the-civilian-mohammed-ahmed-almurad-was,22735757,1 الشهر منذ,36.19107,38.28152
10.02.2025,nالجـ ـيش السوري يستهدف بقـ ـذائف المدفـ ـعية الثقيلة مواقع قسد في صوامع قرية أم_الكيف وقرية الكوزلية في ريف تل_تمر شمال الحسكة,https://syria.liveuamap.com/ar/2025/8-february-19-turkishbacked-factions-target-with-heavy-artillery,22735745,1 الشهر منذ,36.62391,40.22369
10.02.2025,وصل وزير الشؤون الخارجية الجزائرية أحمد_عطاف إلى العاصمة السورية دمشق في زيارة رسمية,https://syria.liveuamap.com/ar/2025/8-february-18-algerian-foreign-minister-ahmed-attaf-arrived,22735758,1 الشهر منذ,33.51461,36.25282
10.02.2025,"ردًا على سؤال حول الانسحاب من سوريا، قال وزير الدفاع إن مثل هذه القرارات يتخذها الرئيس، مع وضع جميع مصالحنا الاستراتيجية في الاعتبار. ""ما نقوم به هنا في البنتاغون هو التخطيط. لذلك نحن نخطط لكل طارئ محتمل مهما كان"".",https://syria.liveuamap.com/ar/2025/8-february-17-responding-to-a-question-about-withdrawal-from,22735775,1 الشهر منذ,38.87011,-77.05287
10.02.2025,غارة لطيران  الإسرائيلي تستهدف اللواء 15 على أطرف مدينة إنخل بريف درعا الشمالي مع استمرار تحليق الطيران المسير في المنطقة,https://syria.liveuamap.com/ar/2025/8-february-16-an-israeli-air-raid-targets-the-15th-brigade,22735774,1 الشهر منذ,33.02817,36.14845
10.02.2025,سوريا: تم العثور على سيارة مفخخة في مدينة الباب (شمال شرق حلب)، كانت مركونة في سوق الهال، وكان من الممكن أن تؤدي إلى وقوع عدد كبير من الضحايا، وتم تفجيرها بأمان من قبل فريق هندسي.,https://syria.liveuamap.com/ar/2025/8-february-15-syria-a-car-bomb-was-discovered-in-town-of,22735691,1 الشهر منذ,36.36944,37.51436
10.02.2025,تحديث  وسائل إعلام لبنانية: 6 شهداء وجريحان في غارة من مسيّرة إسرائيلية على تخوم بلدة جنتا على سفوح سلسلة جبال لبنان الشرقية,https://israelpalestine.liveuamap.com/ar/2025/8-february-15-6-dead-and-2-wounded-in-an-israeli-drone-strike,22735694,1 الشهر منذ,33.85892,36.14639
10.02.2025,بناءً على توجيهات رئيس الجمهورية العماد جوزاف عون، أصدرت قيادة الجيش الأوامر للوحدات العسكرية المنتشرة على الحدود الشمالية والشرقية بالرد على مصادر النيران التي تُطلَق من الأراضي السورية وتستهدف الأراضي اللبنانية. وقد باشرت هذه الوحدات بالرد بالأسلحة المناسبة، وذلك على خلفية الاشتباكات الأخيرة التي تعرضت خلالها عدة مناطق لبنانية للقصف وإطلاق النار,https://syria.liveuamap.com/ar/2025/8-february-15-lebanese-army-based-on-the-directives-of-president,22735742,1 الشهر منذ,34.39631,36.53071
10.02.2025,"قال الجيش الإسرائيلي إن طائرات مقاتلة إسرائيلية قصفت مستودع أسلحة لحماس بالقرب من بلدة دير علي السورية جنوب دمشق قبل قليل. ووفقا للجيش فإن الأسلحة المخزنة في الموقع كانت ستستخدم في هجمات على القوات. ويقول الجيش الإسرائيلي إن ""المنظمات الفلسطينية وعلى رأسها حماس تستغل سوريا لإقامة نشاط إرهابي بتوجيه من إيران""، مضيفا أنه سيعمل ضد حماس في أي مكان تحاول فيه ترسيخ وجودها.",https://syria.liveuamap.com/ar/2025/8-february-13-israeli-fighter-jets-struck-a-hamas-weapon,22735689,1 الشهر منذ,33.28895,36.29694
10.02.2025,الجيش الإسرائيلي: استهدفنا مستودع أسلحة تابع لحركة حماس في منطقة دير علي جنوبي سوريا,https://syria.liveuamap.com/ar/2025/8-february-13-israeli-army-we-targeted-a-hamas-weapons-depot,22735678,1 الشهر منذ,32.07407,34.78779
10.02.2025,مصادر سورية: غارة لطيران العدو الإسرائيلي على تل المانع في منطقة الكسوة بريف دمشق,https://syria.liveuamap.com/ar/2025/8-february-13-israeli-aircraft-raid-on-tal-almanea-in-the,22735668,1 الشهر منذ,33.36621,36.24304
10.02.2025,"مراسل ""النهار"": سقوط 3 ضحايا وجريح اثر غارة من مسيرة إسرائيلية استهدفت معبرا غير شرعي في منطقة الشعرة في جرود بلدة النبي شيت قضاء بعلبك",https://israelpalestine.liveuamap.com/ar/2025/8-february-13-three-victims-and-one-wounded-as-a-result-of,22735672,1 الشهر منذ,33.84016,36.13163
10.02.2025,سوريا: بعد توقف دام خمسة أسابيع، نفذت إسرائيل غارات جوية استهدفت قاعدة سابقة للجيش العربي السوري بالقرب من الكسوة (جنوب دمشق).,https://syria.liveuamap.com/ar/2025/8-february-13-syria-after-a-pause-of-5-weeks-israel-just,22735679,1 الشهر منذ,33.34407,36.30642
10.02.2025,سوريا-لبنان: إسقاط طائرة مسيرة من نوع شاهين، على ما يبدو نموذج انتحاري، من قبل مقاتلين تابعين لحزب الله (القوات تهريب),https://syria.liveuamap.com/ar/2025/8-february-11-syrialebanon-a-shaheen-drone-apparently-a-suicide,22735669,1 الشهر منذ,34.48897,36.37024
11.02.2025,وزير الخارجية السوري: تجنبنا الحرب الطائفية والأهلية بعد سقوط نظام الأسد,https://syria.liveuamap.com/ar/2025/12-february-09-syrian-foreign-minister-we-avoided-sectarian,22736596,4 الأسبوع منذ,33.51767,36.2519
11.02.2025,الشيباني: الحكومة التي ستعلن في 1 آذار/مارس المقبل ستمثّل تنوّع الشعب السوري,https://syria.liveuamap.com/ar/2025/12-february-09-alshaibani-the-government-that-will-be-announced,22736595,4 الأسبوع منذ,33.51632,36.25111
11.02.2025,إعلام سوري عن مصادر: الانتهاء من تشكيل اللجنة التحضيرية لمؤتمر الحوار الوطني,https://syria.liveuamap.com/ar/2025/12-february-07-syrian-media-citing-sources-the-preparatory,22736556,4 الأسبوع منذ,33.51621,36.24939
11.02.2025,طائرات مسيرة تابعة للقوات المسلحة التركية تقصف أهدافاً لقوات سوريا الديمقراطية في قرية سيهلر غربي كوباني,https://syria.liveuamap.com/ar/2025/11-february-12-turkish-armed-forces-uavs-hit-sdf-targets,22736435,4 الأسبوع منذ,36.85184,38.09166
11.02.2025,أهالي مقاطعة الجزيرة يتوجهون إلى سد تشرين للمشاركة في الاحتجاجاتعرض المزيد (  وكالة أنباء هاوار ANHA    لحظة بلحظة عبر الواتس اب,https://syria.liveuamap.com/ar/2025/11-february-11-residents-of-aljazeera-canton-head-to-tishreen,22736433,4 الأسبوع منذ,36.37871,38.1871
11.02.2025,السلطات السورية لم تسمح لرتل عسكري روسي محمل بالصواريخ من قاعدة حميميم الجوية بالدخول إلى قاعدة طرطوس البحرية,https://syria.liveuamap.com/ar/2025/11-february-11-syrian-authorities-not-allowed-russian-military,22736424,4 الأسبوع منذ,34.91702,35.87789
11.02.2025,إذاعة الجيش الإسرائيلي: الوجود الإسرائيلي في سوريا لم يعد مؤقتا ويتم بناء 9 مواقع عسكرية بالمنطقة الأمنية,https://syria.liveuamap.com/ar/2025/11-february-10-israeli-army-radio-israeli-presence-in-syria,22736442,4 الأسبوع منذ,32.07611,34.78786
11.02.2025,طائرات حربية التركي تشن غارات جوية على جنوب كوبانيعرض المزيد,https://syria.liveuamap.com/ar/2025/10-february-20-turkish-warplanes-launch-airstrikes-on-southern,22736245,4 الأسبوع منذ,36.73711,38.27528
11.02.2025,طائرات بدون طيار تابعة للقوات المسلحة التركية تقصف أهدافاً لقوات سوريا الديمقراطية في محيط سد تشرين وجسر قره كوزاك شرقي منبج، ووقعت انفجارات متتالية في المنطقة,https://syria.liveuamap.com/ar/2025/10-february-19-turkish-armed-forces-uavs-are-hitting-sdf,22736209,4 الأسبوع منذ,36.37465,38.14591
11.02.2025,طائرات بدون طيار تابعة للقوات المسلحة التركية تقصف أهدافاً لقوات سوريا الديمقراطية في قرية بوكاك جنوب كوباني,https://syria.liveuamap.com/ar/2025/10-february-15-turkish-armed-forces-uavs-hit-sdf-targets,22736192,1 الشهر منذ,36.7581,38.28614
11.02.2025,إدارة أمن الحدود السورية تعلن سيطرتها الكاملة على الحدود السورية اللبنانية بعد اشتباكات مع عصـ.ـابات لتهريب الأسـ.ـلحة والمـ.ـخدرات,https://syria.liveuamap.com/ar/2025/10-february-11-the-syrian-border-security-administration,22736144,1 الشهر منذ,34.50484,36.3644
11.02.2025,أفاد مراسل درعا 24 نقلاً عن مصدر محلي، بوجود تحركات لقوات  الإسرائيلي المتمركزة على تل الأحمر الغربي في ريف محافظة القنيطرة. حيث شوهدت آليات وجرافات تنزل من التل، ويُرجح أن وجهتها هي قرية أبو غارة في المنطقة. أضاف المراسل أن الطيران الحربي الإسرائيلي يحلق بكثافة في…,https://syria.liveuamap.com/ar/2025/10-february-10-daraa-24-correspondent-reported-quoting-a,22736143,1 الشهر منذ,32.95694,35.93302
11.02.2025,وكالة الأنباء اللبنانية: الجيش اللبناني يستكمل اليوم انتشاره في المنطقة الحدودية الشمالية لمدينة الهرمل مع سوريا بعد انسحاب مقاتلي العشائر اللبنانيين,https://syria.liveuamap.com/ar/2025/10-february-10-lebanese-news-agency-the-lebanese-army-today,22736128,1 الشهر منذ,34.42133,36.53315
11.02.2025,الأمن العام يبدأ حملة أمنية تستهدف تجار السلاح والمخدرات في قرى دير قانون وكفير الزيت بريف دمشق,https://syria.liveuamap.com/ar/2025/10-february-10-public-security-launches-a-security-campaign,22736126,1 الشهر منذ,33.60386,36.13609
11.02.2025,"أعلن الجيش الإسرائيلي الأحد أن إسرائيل نفذت ""ضربة استخباراتية دقيقة على نفق تحت الأرض يمتد من الأراضي السورية إلى الأراضي اللبنانية كان يستخدمه حزب الله لتهريب الأسلحة في منطقة البقاع وتعرض للقصف في الماضي"".",https://israelpalestine.liveuamap.com/ar/2025/9-february-20-israel-conducted-a-precise-intelligencebased,22736011,1 الشهر منذ,32.07487,34.78752
11.02.2025,وكالة الأنباء اللبنانية: الجيش يرسل تعزيزات عسكرية إلى منطقة مشاريع القاع بعد تعرضها لاطلاق نار من الجانب السوري,https://syria.liveuamap.com/ar/2025/9-february-15-lebanese-news-agency-the-army-sends-military,22736008,1 الشهر منذ,34.40731,36.54413
11.02.2025,الجيش اللبناني: نفذنا تدابير أمنية على الحدود مع سوريا,https://syria.liveuamap.com/ar/2025/9-february-15-lebanese-army-we-have-implemented-security,22735942,1 الشهر منذ,33.89382,35.50356
11.02.2025,"معلومات ""النهار"": عودة الهدوء إلى الحدود اللبنانية السورية بعد استعادة الجيش اللبناني زمام الأمور وإحكام سيطرته على الوضع",https://syria.liveuamap.com/ar/2025/9-february-15-calm-returns-to-the-lebanesesyrian-border-after,22735938,1 الشهر منذ,34.48547,36.35445
11.02.2025,القناة 12 الإسرائيلية عن مصادر: الجيش لا يعرف إلى متى سيبقى سيطرته على أراض سورية,https://syria.liveuamap.com/ar/2025/9-february-14-channel-12-israel-citing-sources-the-army-does,22735928,1 الشهر منذ,33.12601,35.83603
11.02.2025,غارات لطيران  الإسرائيلي تستهدف مطار خلخلة العسكري بالسويداء,https://syria.liveuamap.com/ar/2025/9-february-13-israeli-air-strikes-target-khalkhala-military,22735906,1 الشهر منذ,33.07627,36.5443
11.02.2025,"مراسل نهر_ميديا: نفذت قسد حملة مداهمات في قرية التوامية التابعة لمدينة البصيرة شرقي ديرالزور، صباح اليوم، استهدفت منازل عناصر منشقين عنها واعتقلت عدداً منهم عرف منهم ""بشار السليم""",https://syria.liveuamap.com/ar/2025/9-february-13-the-sdf-carried-out-a-raid-campaign-in-the,22735918,1 الشهر منذ,35.1516,40.4278
11.02.2025,تستمر الاشتباكات في غابات أكوم وجرمش على الحدود بين سوريا ولبنان بين الجيش السوري وحزب الله,https://syria.liveuamap.com/ar/2025/9-february-12-clashes-continue-at-the-forests-of-akum-and,22735893,1 الشهر منذ,34.50751,36.34003
11.02.2025,"Raqqa الرقة: استشهاد المدني ""محمد أحمد المراد"" نتيجة القصف الجوي التركي قبل قليل على قرية (الخاتونية) شمال شرق بلدة الجرنية بريف الرقة الغربي.Raqqa الرقة: الطيران التركي يستهدف قرية الخاتونية شمال مفرق (الكــلي) بغارة جوية وإصابات في صفوف المدنيين عرف من المصابين (محمد المراد)",https://syria.liveuamap.com/ar/2025/8-february-20-raqqa-the-civilian-mohammed-ahmed-almurad-was,22735757,1 الشهر منذ,36.19107,38.28152
11.02.2025,nالجـ ـيش السوري يستهدف بقـ ـذائف المدفـ ـعية الثقيلة مواقع قسد في صوامع قرية أم_الكيف وقرية الكوزلية في ريف تل_تمر شمال الحسكة,https://syria.liveuamap.com/ar/2025/8-february-19-turkishbacked-factions-target-with-heavy-artillery,22735745,1 الشهر منذ,36.62391,40.22369
11.02.2025,وصل وزير الشؤون الخارجية الجزائرية أحمد_عطاف إلى العاصمة السورية دمشق في زيارة رسمية,https://syria.liveuamap.com/ar/2025/8-february-18-algerian-foreign-minister-ahmed-attaf-arrived,22735758,1 الشهر منذ,33.51461,36.25282
11.02.2025,"ردًا على سؤال حول الانسحاب من سوريا، قال وزير الدفاع إن مثل هذه القرارات يتخذها الرئيس، مع وضع جميع مصالحنا الاستراتيجية في الاعتبار. ""ما نقوم به هنا في البنتاغون هو التخطيط. لذلك نحن نخطط لكل طارئ محتمل مهما كان"".",https://syria.liveuamap.com/ar/2025/8-february-17-responding-to-a-question-about-withdrawal-from,22735775,1 الشهر منذ,38.87011,-77.05287
11.02.2025,غارة لطيران  الإسرائيلي تستهدف اللواء 15 على أطرف مدينة إنخل بريف درعا الشمالي مع استمرار تحليق الطيران المسير في المنطقة,https://syria.liveuamap.com/ar/2025/8-february-16-an-israeli-air-raid-targets-the-15th-brigade,22735774,1 الشهر منذ,33.02817,36.14845
11.02.2025,سوريا: تم العثور على سيارة مفخخة في مدينة الباب (شمال شرق حلب)، كانت مركونة في سوق الهال، وكان من الممكن أن تؤدي إلى وقوع عدد كبير من الضحايا، وتم تفجيرها بأمان من قبل فريق هندسي.,https://syria.liveuamap.com/ar/2025/8-february-15-syria-a-car-bomb-was-discovered-in-town-of,22735691,1 الشهر منذ,36.36944,37.51436
11.02.2025,تحديث  وسائل إعلام لبنانية: 6 شهداء وجريحان في غارة من مسيّرة إسرائيلية على تخوم بلدة جنتا على سفوح سلسلة جبال لبنان الشرقية,https://israelpalestine.liveuamap.com/ar/2025/8-february-15-6-dead-and-2-wounded-in-an-israeli-drone-strike,22735694,1 الشهر منذ,33.85892,36.14639
11.02.2025,بناءً على توجيهات رئيس الجمهورية العماد جوزاف عون، أصدرت قيادة الجيش الأوامر للوحدات العسكرية المنتشرة على الحدود الشمالية والشرقية بالرد على مصادر النيران التي تُطلَق من الأراضي السورية وتستهدف الأراضي اللبنانية. وقد باشرت هذه الوحدات بالرد بالأسلحة المناسبة، وذلك على خلفية الاشتباكات الأخيرة التي تعرضت خلالها عدة مناطق لبنانية للقصف وإطلاق النار,https://syria.liveuamap.com/ar/2025/8-february-15-lebanese-army-based-on-the-directives-of-president,22735742,1 الشهر منذ,34.39631,36.53071
12.02.2025,قالت الولايات المتحدة إن المساعدة في إدارة وتأمين المعسكرات في شمال شرق سوريا التي تضم سجناء مرتبطين بتنظيم الدولة الإسلامية لا يمكن أن تستمر إلى الأبد، ولا يمكن أن تظل المعسكرات مسؤولية مالية ة للولايات المتحدة، وتحث الدول على إعادة مواطنيها النازحين والمحتجزين في المنطقة.,https://syria.liveuamap.com/ar/2025/12-february-16-us-says-assistance-for-managing-and-securing,22736676,4 الأسبوع منذ,40.74888,-73.96801
12.02.2025,، أفادت قراءة سورية للمكالمة أن بوتن هنأ الشرع على توليه الرئاسة. وأشار الشرع إلى العلاقة الاستراتيجية العميقة بين البلدين. وقال بوتن إنه مستعد لإعادة النظر في الاتفاقيات الموقعة بين موسكو والنظام السابق، وفقًا للقراءة. كما دعا بوتن وزير الخارجية السوري إلى موسكو,https://syria.liveuamap.com/ar/2025/12-february-15-now-syria-readout-of-call-says-putin-congratulated,22736672,4 الأسبوع منذ,33.51704,36.25162
12.02.2025,بوتين يجري محادثات مع أحمد الشرع - الكرملين,https://syria.liveuamap.com/ar/2025/12-february-13-putin-held-a-talks-with-ahmed-al-sharaa--kremlin,22736659,4 الأسبوع منذ,55.7503,37.61616
12.02.2025,المرصد_السوريتصعيد جوي تركي في ريف حلب.. مسيّرة تـ ـسـ ـتـ ـهـ ـدف سد_تشرين وغارة حربية تـ ـضـ ـرب جبال_القصق,https://syria.liveuamap.com/ar/2025/12-february-12-drone-targets-tishreen-dam-and-warplanes-raid,22736669,4 الأسبوع منذ,36.623,38.23878
12.02.2025,"غارات تركية تستهدف مواقع ""قسد"" في جبال زور مغار والشيوخ شرقي حلب",https://syria.liveuamap.com/ar/2025/12-february-11-turkish-raids-target-sdf-sites-in-zor-maghar,22736633,4 الأسبوع منذ,36.79255,38.06296
12.02.2025,وزير الخارجية السوري: تجنبنا الحرب الطائفية والأهلية بعد سقوط نظام الأسد,https://syria.liveuamap.com/ar/2025/12-february-09-syrian-foreign-minister-we-avoided-sectarian,22736596,4 الأسبوع منذ,33.51767,36.2519
12.02.2025,الشيباني: الحكومة التي ستعلن في 1 آذار/مارس المقبل ستمثّل تنوّع الشعب السوري,https://syria.liveuamap.com/ar/2025/12-february-09-alshaibani-the-government-that-will-be-announced,22736595,4 الأسبوع منذ,33.51632,36.25111
12.02.2025,إعلام سوري عن مصادر: الانتهاء من تشكيل اللجنة التحضيرية لمؤتمر الحوار الوطني,https://syria.liveuamap.com/ar/2025/12-february-07-syrian-media-citing-sources-the-preparatory,22736556,4 الأسبوع منذ,33.51621,36.24939
12.02.2025,طائرات مسيرة تابعة للقوات المسلحة التركية تقصف أهدافاً لقوات سوريا الديمقراطية في قرية سيهلر غربي كوباني,https://syria.liveuamap.com/ar/2025/11-february-12-turkish-armed-forces-uavs-hit-sdf-targets,22736435,4 الأسبوع منذ,36.85184,38.09166
12.02.2025,أهالي مقاطعة الجزيرة يتوجهون إلى سد تشرين للمشاركة في الاحتجاجاتعرض المزيد (  وكالة أنباء هاوار ANHA    لحظة بلحظة عبر الواتس اب,https://syria.liveuamap.com/ar/2025/11-february-11-residents-of-aljazeera-canton-head-to-tishreen,22736433,4 الأسبوع منذ,36.37871,38.1871
12.02.2025,السلطات السورية لم تسمح لرتل عسكري روسي محمل بالصواريخ من قاعدة حميميم الجوية بالدخول إلى قاعدة طرطوس البحرية,https://syria.liveuamap.com/ar/2025/11-february-11-syrian-authorities-not-allowed-russian-military,22736424,4 الأسبوع منذ,34.91702,35.87789
12.02.2025,إذاعة الجيش الإسرائيلي: الوجود الإسرائيلي في سوريا لم يعد مؤقتا ويتم بناء 9 مواقع عسكرية بالمنطقة الأمنية,https://syria.liveuamap.com/ar/2025/11-february-10-israeli-army-radio-israeli-presence-in-syria,22736442,4 الأسبوع منذ,32.07611,34.78786
12.02.2025,طائرات حربية التركي تشن غارات جوية على جنوب كوبانيعرض المزيد,https://syria.liveuamap.com/ar/2025/10-february-20-turkish-warplanes-launch-airstrikes-on-southern,22736245,4 الأسبوع منذ,36.73711,38.27528
12.02.2025,طائرات بدون طيار تابعة للقوات المسلحة التركية تقصف أهدافاً لقوات سوريا الديمقراطية في محيط سد تشرين وجسر قره كوزاك شرقي منبج، ووقعت انفجارات متتالية في المنطقة,https://syria.liveuamap.com/ar/2025/10-february-19-turkish-armed-forces-uavs-are-hitting-sdf,22736209,4 الأسبوع منذ,36.37465,38.14591
12.02.2025,طائرات بدون طيار تابعة للقوات المسلحة التركية تقصف أهدافاً لقوات سوريا الديمقراطية في قرية بوكاك جنوب كوباني,https://syria.liveuamap.com/ar/2025/10-february-15-turkish-armed-forces-uavs-hit-sdf-targets,22736192,1 الشهر منذ,36.7581,38.28614
12.02.2025,إدارة أمن الحدود السورية تعلن سيطرتها الكاملة على الحدود السورية اللبنانية بعد اشتباكات مع عصـ.ـابات لتهريب الأسـ.ـلحة والمـ.ـخدرات,https://syria.liveuamap.com/ar/2025/10-february-11-the-syrian-border-security-administration,22736144,1 الشهر منذ,34.50484,36.3644
12.02.2025,أفاد مراسل درعا 24 نقلاً عن مصدر محلي، بوجود تحركات لقوات  الإسرائيلي المتمركزة على تل الأحمر الغربي في ريف محافظة القنيطرة. حيث شوهدت آليات وجرافات تنزل من التل، ويُرجح أن وجهتها هي قرية أبو غارة في المنطقة. أضاف المراسل أن الطيران الحربي الإسرائيلي يحلق بكثافة في…,https://syria.liveuamap.com/ar/2025/10-february-10-daraa-24-correspondent-reported-quoting-a,22736143,1 الشهر منذ,32.95694,35.93302
12.02.2025,وكالة الأنباء اللبنانية: الجيش اللبناني يستكمل اليوم انتشاره في المنطقة الحدودية الشمالية لمدينة الهرمل مع سوريا بعد انسحاب مقاتلي العشائر اللبنانيين,https://syria.liveuamap.com/ar/2025/10-february-10-lebanese-news-agency-the-lebanese-army-today,22736128,1 الشهر منذ,34.42133,36.53315
12.02.2025,الأمن العام يبدأ حملة أمنية تستهدف تجار السلاح والمخدرات في قرى دير قانون وكفير الزيت بريف دمشق,https://syria.liveuamap.com/ar/2025/10-february-10-public-security-launches-a-security-campaign,22736126,1 الشهر منذ,33.60386,36.13609
12.02.2025,"أعلن الجيش الإسرائيلي الأحد أن إسرائيل نفذت ""ضربة استخباراتية دقيقة على نفق تحت الأرض يمتد من الأراضي السورية إلى الأراضي اللبنانية كان يستخدمه حزب الله لتهريب الأسلحة في منطقة البقاع وتعرض للقصف في الماضي"".",https://israelpalestine.liveuamap.com/ar/2025/9-february-20-israel-conducted-a-precise-intelligencebased,22736011,1 الشهر منذ,32.07487,34.78752
12.02.2025,وكالة الأنباء اللبنانية: الجيش يرسل تعزيزات عسكرية إلى منطقة مشاريع القاع بعد تعرضها لاطلاق نار من الجانب السوري,https://syria.liveuamap.com/ar/2025/9-february-15-lebanese-news-agency-the-army-sends-military,22736008,1 الشهر منذ,34.40731,36.54413
12.02.2025,الجيش اللبناني: نفذنا تدابير أمنية على الحدود مع سوريا,https://syria.liveuamap.com/ar/2025/9-february-15-lebanese-army-we-have-implemented-security,22735942,1 الشهر منذ,33.89382,35.50356
12.02.2025,"معلومات ""النهار"": عودة الهدوء إلى الحدود اللبنانية السورية بعد استعادة الجيش اللبناني زمام الأمور وإحكام سيطرته على الوضع",https://syria.liveuamap.com/ar/2025/9-february-15-calm-returns-to-the-lebanesesyrian-border-after,22735938,1 الشهر منذ,34.48547,36.35445
12.02.2025,القناة 12 الإسرائيلية عن مصادر: الجيش لا يعرف إلى متى سيبقى سيطرته على أراض سورية,https://syria.liveuamap.com/ar/2025/9-february-14-channel-12-israel-citing-sources-the-army-does,22735928,1 الشهر منذ,33.12601,35.83603
12.02.2025,غارات لطيران  الإسرائيلي تستهدف مطار خلخلة العسكري بالسويداء,https://syria.liveuamap.com/ar/2025/9-february-13-israeli-air-strikes-target-khalkhala-military,22735906,1 الشهر منذ,33.07627,36.5443
12.02.2025,"مراسل نهر_ميديا: نفذت قسد حملة مداهمات في قرية التوامية التابعة لمدينة البصيرة شرقي ديرالزور، صباح اليوم، استهدفت منازل عناصر منشقين عنها واعتقلت عدداً منهم عرف منهم ""بشار السليم""",https://syria.liveuamap.com/ar/2025/9-february-13-the-sdf-carried-out-a-raid-campaign-in-the,22735918,1 الشهر منذ,35.1516,40.4278
12.02.2025,تستمر الاشتباكات في غابات أكوم وجرمش على الحدود بين سوريا ولبنان بين الجيش السوري وحزب الله,https://syria.liveuamap.com/ar/2025/9-february-12-clashes-continue-at-the-forests-of-akum-and,22735893,1 الشهر منذ,34.50751,36.34003
12.02.2025,"Raqqa الرقة: استشهاد المدني ""محمد أحمد المراد"" نتيجة القصف الجوي التركي قبل قليل على قرية (الخاتونية) شمال شرق بلدة الجرنية بريف الرقة الغربي.Raqqa الرقة: الطيران التركي يستهدف قرية الخاتونية شمال مفرق (الكــلي) بغارة جوية وإصابات في صفوف المدنيين عرف من المصابين (محمد المراد)",https://syria.liveuamap.com/ar/2025/8-february-20-raqqa-the-civilian-mohammed-ahmed-almurad-was,22735757,1 الشهر منذ,36.19107,38.28152
12.02.2025,nالجـ ـيش السوري يستهدف بقـ ـذائف المدفـ ـعية الثقيلة مواقع قسد في صوامع قرية أم_الكيف وقرية الكوزلية في ريف تل_تمر شمال الحسكة,https://syria.liveuamap.com/ar/2025/8-february-19-turkishbacked-factions-target-with-heavy-artillery,22735745,1 الشهر منذ,36.62391,40.22369
12.02.2025,وصل وزير الشؤون الخارجية الجزائرية أحمد_عطاف إلى العاصمة السورية دمشق في زيارة رسمية,https://syria.liveuamap.com/ar/2025/8-february-18-algerian-foreign-minister-ahmed-attaf-arrived,22735758,1 الشهر منذ,33.51461,36.25282
